date,temperature_2m,relative_humidity_2m,dew_point_2m,apparent_temperature,precipitation_probability,precipitation,rain,showers,snowfall,cloud_cover,visibility,wind_speed_10m,wind_direction_10m,uv_index,uv_index_clear_sky,is_day,location,latitude,longitude,key
2024-08-12 00:00:00+00:00,26.313501,35.0,9.633678,24.365149,0.0,0.0,0.0,0.0,0.0,89.0,56200.0,12.7279215,241.2603,0.2,0.2,0.0,New York,40.71,-74.01,New York 2024-08-12 00:00:00+00:00
2024-08-12 00:00:00+00:00,23.619501,83.0,20.561903,26.02392,100.0,0.0,0.0,0.0,0.0,100.0,15800.0,11.966953,276.91113,4.05,4.25,1.0,Chula Vista,32.64,-117.08,Chula Vista 2024-08-12 00:00:00+00:00
2024-08-12 00:00:00+00:00,23.2495,42.0,9.623765,22.099731,0.0,0.0,0.0,0.0,0.0,95.0,45700.0,7.24486,296.56497,0.6,0.7,1.0,Cincinnati,39.1,-84.51,Cincinnati 2024-08-12 00:00:00+00:00
2024-08-12 00:00:00+00:00,24.2875,60.0,16.028566,24.93917,3.0,0.0,0.0,0.0,0.0,100.0,28400.0,9.726665,87.87895,1.5,1.55,1.0,Kansas City,39.1,-94.58,Kansas City 2024-08-12 00:00:00+00:00
2024-08-12 00:00:00+00:00,20.6115,70.0,14.947866,20.096613,0.0,0.0,0.0,0.0,0.0,10.0,22000.0,14.84318,284.03625,3.95,4.15,1.0,Tacoma,47.25,-122.44,Tacoma 2024-08-12 00:00:00+00:00
2024-08-12 00:00:00+00:00,30.0865,50.0,18.526327,31.412338,0.0,0.0,0.0,0.0,0.0,1.0,36500.0,13.556282,259.28693,4.35,4.35,1.0,Los Angeles,34.05,-118.24,Los Angeles 2024-08-12 00:00:00+00:00
2024-08-12 00:00:00+00:00,32.245502,60.0,23.495579,36.612736,3.0,0.0,0.0,0.0,0.0,12.0,29900.0,9.6932955,105.06854,0.3,0.3,0.0,Hialeah,25.86,-80.3,Hialeah 2024-08-12 00:00:00+00:00
2024-08-12 00:00:00+00:00,38.4565,29.0,17.28018,39.80617,0.0,0.0,0.0,0.0,0.0,0.0,62700.0,8.404285,223.26433,3.65,3.7,1.0,Gilbert,33.35,-111.79,Gilbert 2024-08-12 00:00:00+00:00
2024-08-12 00:00:00+00:00,25.4155,62.0,17.606812,26.635757,0.0,0.0,0.0,0.0,0.0,99.0,30300.0,10.383987,56.309914,0.9,1.05,1.0,Memphis,35.15,-90.05,Memphis 2024-08-12 00:00:00+00:00
2024-08-12 00:00:00+00:00,17.8825,80.0,14.383554,16.374416,0.0,0.0,0.0,0.0,0.0,18.0,15700.0,22.314192,280.2221,4.75,4.75,1.0,San Francisco,37.77,-122.42,San Francisco 2024-08-12 00:00:00+00:00
2024-08-12 00:00:00+00:00,29.890999,27.0,8.8749895,28.130856,6.0,0.0,0.0,0.0,0.0,0.0,66900.0,10.00256,120.256355,0.2,2.85,1.0,Colorado Springs,38.83,-104.82,Colorado Springs 2024-08-12 00:00:00+00:00
2024-08-12 00:00:00+00:00,25.446,82.0,22.14747,29.064358,29.0,0.0,0.0,0.0,0.0,100.0,17900.0,9.504273,155.37645,1.65,1.65,1.0,Tulsa,36.15,-95.99,Tulsa 2024-08-12 00:00:00+00:00
2024-08-12 00:00:00+00:00,31.092499,50.0,19.448828,33.390575,16.0,0.0,0.0,0.0,0.0,51.0,24140.0,21.129885,66.929565,8.85,8.85,1.0,Honolulu,21.31,-157.86,Honolulu 2024-08-12 00:00:00+00:00
2024-08-12 00:00:00+00:00,40.5305,22.0,14.696448,38.009266,0.0,0.0,0.0,0.0,0.0,10.0,75800.0,27.811018,158.74942,4.1,4.1,1.0,Las Vegas,36.17,-115.14,Las Vegas 2024-08-12 00:00:00+00:00
2024-08-12 00:00:00+00:00,22.863,47.0,10.9586,20.865309,6.0,0.0,0.0,0.0,0.0,14.0,40900.0,15.716793,290.0953,0.65,0.65,1.0,Toledo,41.65,-83.54,Toledo 2024-08-12 00:00:00+00:00
2024-08-12 00:00:00+00:00,19.437,64.0,12.450282,18.183666,77.0,0.0,0.0,0.0,0.0,11.0,27800.0,13.849476,261.02747,0.4,0.4,1.0,Buffalo,42.89,-78.88,Buffalo 2024-08-12 00:00:00+00:00
2024-08-12 00:00:00+00:00,22.7455,49.0,11.48004,21.937475,0.0,0.0,0.0,0.0,0.0,2.0,40300.0,8.654986,286.92758,0.8,0.8,1.0,Indianapolis,39.77,-86.16,Indianapolis 2024-08-12 00:00:00+00:00
2024-08-12 00:00:00+00:00,24.974,56.0,15.591388,24.926878,0.0,0.0,0.0,0.0,0.0,100.0,33500.0,13.32,198.92474,1.15,1.15,1.0,St. Louis,38.63,-90.2,St. Louis 2024-08-12 00:00:00+00:00
2024-08-12 00:00:00+00:00,25.877998,59.0,17.255915,26.715054,0.0,0.0,0.0,0.0,0.0,16.0,32000.0,12.904882,22.988754,4.35,4.35,1.0,Portland,45.52,-122.68,Portland 2024-08-12 00:00:00+00:00
2024-08-12 00:00:00+00:00,22.3305,66.0,15.670908,22.003319,0.0,0.0,0.0,0.0,0.0,16.0,25000.0,16.610792,330.1012,4.7,4.75,1.0,Fremont,37.55,-121.98,Fremont 2024-08-12 00:00:00+00:00
2024-08-12 00:00:00+00:00,29.974,43.0,16.038076,29.884182,0.0,0.0,0.0,0.0,0.0,15.0,45800.0,14.799459,288.43503,0.65,0.65,1.0,Atlanta,33.75,-84.39,Atlanta 2024-08-12 00:00:00+00:00
2024-08-12 00:00:00+00:00,35.169,14.0,3.6659648,32.170315,0.0,0.0,0.0,0.0,0.0,0.0,90000.0,10.308831,347.90527,3.9,3.9,1.0,Boise,43.62,-116.2,Boise 2024-08-12 00:00:00+00:00
2024-08-12 00:00:00+00:00,40.7565,21.0,14.162689,37.75107,0.0,0.0,0.0,0.0,0.0,8.0,77100.0,29.784426,172.35968,4.15,4.15,1.0,North Las Vegas,36.2,-115.12,North Las Vegas 2024-08-12 00:00:00+00:00
2024-08-12 00:00:00+00:00,22.390999,45.0,9.87684,21.055777,0.0,0.0,0.0,0.0,0.0,0.0,43500.0,9.007196,272.29056,0.6,0.6,1.0,Columbus,39.96,-83.0,Columbus 2024-08-12 00:00:00+00:00
2024-08-12 00:00:00+00:00,27.719501,86.0,25.16264,33.708282,16.0,0.0,0.0,0.0,0.0,100.0,16500.0,5.8603754,79.380394,0.4,0.45,1.0,Tampa,27.95,-82.46,Tampa 2024-08-12 00:00:00+00:00
2024-08-12 00:00:00+00:00,28.852,28.0,8.525727,26.66488,0.0,0.0,0.0,0.0,0.0,76.0,65500.0,12.303366,249.44386,1.65,2.9,1.0,Aurora,39.73,-104.83,Aurora 2024-08-12 00:00:00+00:00
2024-08-12 00:00:00+00:00,25.134499,42.0,11.32018,24.92323,0.0,0.0,0.0,0.0,0.0,0.0,47300.0,4.2136917,289.9832,0.3,0.3,1.0,Baltimore,39.29,-76.61,Baltimore 2024-08-12 00:00:00+00:00
2024-08-12 00:00:00+00:00,24.924002,45.0,12.175595,24.371954,0.0,0.0,0.0,0.0,0.0,89.0,44800.0,8.404285,223.26433,0.2,0.2,0.0,Newark,40.73,-74.17,Newark 2024-08-12 00:00:00+00:00
2024-08-12 00:00:00+00:00,23.574001,65.0,16.612123,24.048315,0.0,0.0,0.0,0.0,0.0,10.0,24600.0,15.281989,344.9816,4.75,4.75,1.0,San Jose,37.34,-121.89,San Jose 2024-08-12 00:00:00+00:00
2024-08-12 00:00:00+00:00,25.148,79.0,21.247593,28.791672,0.0,0.0,0.0,0.0,0.0,0.0,19900.0,5.937272,14.036275,0.4,0.4,1.0,Greensboro,36.07,-79.79,Greensboro 2024-08-12 00:00:00+00:00
2024-08-12 00:00:00+00:00,30.7,46.0,17.758236,31.87473,0.0,0.0,0.0,0.0,0.0,0.0,40400.0,12.261157,229.76372,4.35,4.35,1.0,Glendale,34.14,-118.25,Glendale 2024-08-12 00:00:00+00:00
2024-08-12 00:00:00+00:00,28.057001,73.0,22.76294,32.795795,16.0,0.0,0.0,0.0,0.0,22.0,23000.0,4.2136917,289.9832,0.45,0.45,1.0,Charlotte,35.23,-80.84,Charlotte 2024-08-12 00:00:00+00:00
2024-08-12 00:00:00+00:00,21.7675,65.0,14.898433,22.56768,0.0,0.0,0.0,0.0,0.0,50.0,28000.0,5.692099,325.30478,0.75,0.8,1.0,Louisville,38.25,-85.76,Louisville 2024-08-12 00:00:00+00:00
2024-08-12 00:00:00+00:00,26.588999,77.0,22.224981,30.76978,0.0,0.0,0.0,0.0,0.0,0.0,21200.0,5.937272,14.036275,0.35,0.35,1.0,Durham,35.99,-78.9,Durham 2024-08-12 00:00:00+00:00
2024-08-12 00:00:00+00:00,33.113,54.0,22.562174,34.725,10.0,0.0,0.0,0.0,0.0,5.0,32200.0,24.798225,117.68098,1.7,1.75,1.0,Arlington,32.74,-97.11,Arlington 2024-08-12 00:00:00+00:00
2024-08-12 00:00:00+00:00,29.6065,50.0,18.08607,30.315777,0.0,0.0,0.0,0.0,0.0,4.0,34200.0,15.683774,211.86594,4.3,4.3,1.0,Anaheim,33.83,-117.91,Anaheim 2024-08-12 00:00:00+00:00
2024-08-12 00:00:00+00:00,23.272001,42.0,9.644026,21.63411,0.0,0.0,0.0,0.0,0.0,90.0,47200.0,10.630672,241.69934,0.35,0.45,1.0,Pittsburgh,40.44,-79.99,Pittsburgh 2024-08-12 00:00:00+00:00
2024-08-12 00:00:00+00:00,31.75,30.0,12.048405,30.613472,0.0,0.0,0.0,0.0,0.0,2.0,59900.0,14.84318,202.8337,4.6,4.6,1.0,Sacramento,38.58,-121.49,Sacramento 2024-08-12 00:00:00+00:00
2024-08-12 00:00:00+00:00,28.3955,57.0,19.059639,29.747952,0.0,0.0,0.0,0.0,0.0,50.0,28900.0,14.021525,209.19739,4.3,4.3,1.0,Irvine,33.68,-117.83,Irvine 2024-08-12 00:00:00+00:00
2024-08-12 00:00:00+00:00,20.8,52.0,10.584629,19.786566,0.0,0.0,0.0,0.0,0.0,1.0,37600.0,8.209263,307.87503,0.75,0.75,1.0,Fort Wayne,41.08,-85.14,Fort Wayne 2024-08-12 00:00:00+00:00
2024-08-12 00:00:00+00:00,19.2395,79.0,15.507868,19.926283,0.0,0.0,0.0,0.0,0.0,50.0,18000.0,8.089993,290.85452,4.1,4.1,1.0,Seattle,47.61,-122.33,Seattle 2024-08-12 00:00:00+00:00
2024-08-12 00:00:00+00:00,23.6,68.0,17.349016,25.961035,3.0,0.0,0.0,0.0,0.0,37.0,26000.0,1.8,36.86999,0.2,0.2,0.0,Virginia Beach,36.85,-75.98,Virginia Beach 2024-08-12 00:00:00+00:00
2024-08-12 00:00:00+00:00,30.8,78.0,26.51844,35.178894,0.0,0.0,0.0,0.0,0.0,1.0,18600.0,23.219301,119.74479,1.8,1.8,1.0,Corpus Christi,27.8,-97.4,Corpus Christi 2024-08-12 00:00:00+00:00
2024-08-12 00:00:00+00:00,32.1935,30.0,12.430546,31.57521,0.0,0.0,0.0,0.0,0.0,99.0,63500.0,9.387651,302.47116,4.35,4.6,1.0,Stockton,37.96,-121.29,Stockton 2024-08-12 00:00:00+00:00
2024-08-12 00:00:00+00:00,21.630999,61.0,13.787174,21.435177,0.0,0.0,0.0,0.0,0.0,100.0,27700.0,9.726664,128.991,1.7,1.7,1.0,Omaha,41.26,-95.94,Omaha 2024-08-12 00:00:00+00:00
2024-08-12 00:00:00+00:00,36.1,21.0,10.3321085,32.838493,0.0,0.0,0.0,0.0,0.0,0.0,75900.0,23.042812,180.89516,2.4,2.4,1.0,Lubbock,33.58,-101.88,Lubbock 2024-08-12 00:00:00+00:00
2024-08-12 00:00:00+00:00,25.054,48.0,13.2795725,25.760426,0.0,0.0,0.0,0.0,0.0,0.0,40500.0,2.3051248,308.65982,0.3,0.3,1.0,Washington,38.91,-77.04,Washington 2024-08-12 00:00:00+00:00
2024-08-12 00:00:00+00:00,25.4545,45.0,12.656772,25.077053,0.0,0.0,0.0,0.0,0.0,9.0,44200.0,8.287822,325.6196,0.85,0.85,1.0,Nashville,36.16,-86.78,Nashville 2024-08-12 00:00:00+00:00
2024-08-12 00:00:00+00:00,24.417,81.0,20.94378,27.835197,100.0,0.0,0.0,0.0,0.0,100.0,16400.0,6.379216,253.61038,3.7,4.25,1.0,San Diego,32.72,-117.16,San Diego 2024-08-12 00:00:00+00:00
2024-08-12 00:00:00+00:00,25.687,37.0,9.909615,24.128727,0.0,0.0,0.0,0.0,0.0,62.0,52000.0,10.587918,234.6887,0.2,0.2,0.0,Jersey City,40.71,-74.07,Jersey City 2024-08-12 00:00:00+00:00
2024-08-12 00:00:00+00:00,37.895,15.0,6.808582,36.26863,0.0,0.0,0.0,0.0,0.0,0.0,89900.0,5.495161,238.39255,3.05,3.05,1.0,El Paso,31.76,-106.49,El Paso 2024-08-12 00:00:00+00:00
2024-08-12 00:00:00+00:00,38.5435,28.0,16.800293,39.832047,0.0,0.0,0.0,0.0,0.0,50.0,64000.0,7.42159,219.09384,3.65,3.7,1.0,Chandler,33.31,-111.84,Chandler 2024-08-12 00:00:00+00:00
2024-08-12 00:00:00+00:00,22.98,48.0,11.383102,22.87634,0.0,0.0,0.0,0.0,0.0,11.0,39100.0,3.6179552,84.2895,0.95,0.95,1.0,Chicago,41.88,-87.63,Chicago 2024-08-12 00:00:00+00:00
2024-08-12 00:00:00+00:00,23.0045,48.0,11.405516,21.836071,0.0,0.0,0.0,0.0,0.0,8.0,41000.0,10.966713,293.1986,0.7,0.7,1.0,Lexington,38.04,-84.5,Lexington 2024-08-12 00:00:00+00:00
2024-08-12 00:00:00+00:00,24.4805,78.0,20.392801,26.156746,0.0,0.0,0.0,0.0,0.0,6.0,17100.0,16.92383,203.83875,4.35,4.4,1.0,Long Beach,33.77,-118.19,Long Beach 2024-08-12 00:00:00+00:00
2024-08-12 00:00:00+00:00,23.8,43.0,10.471864,22.318155,0.0,0.0,0.0,0.0,0.0,2.0,46500.0,11.183201,266.3087,1.05,1.05,1.0,Madison,43.07,-89.4,Madison 2024-08-12 00:00:00+00:00
2024-08-12 00:00:00+00:00,25.280499,43.0,11.80779,24.1783,0.0,0.0,0.0,0.0,0.0,3.0,43800.0,11.367109,190.95403,0.15,0.15,0.0,Boston,42.36,-71.06,Boston 2024-08-12 00:00:00+00:00
2024-08-12 00:00:00+00:00,32.1325,51.0,20.723434,36.04846,0.0,0.0,0.0,0.0,0.0,0.0,36800.0,2.0991426,30.963696,1.2,1.2,1.0,Baton Rouge,30.45,-91.15,Baton Rouge 2024-08-12 00:00:00+00:00
2024-08-12 00:00:00+00:00,32.167,8.0,-6.2560306,26.679125,0.0,0.0,0.0,0.0,0.0,50.0,90000.0,20.316889,262.8751,3.55,4.65,1.0,Reno,39.53,-119.81,Reno 2024-08-12 00:00:00+00:00
2024-08-12 00:00:00+00:00,35.9565,37.0,18.98827,35.667755,10.0,0.0,0.0,0.0,0.0,13.0,46400.0,24.967497,132.66266,1.65,1.7,1.0,Irving,32.81,-96.95,Irving 2024-08-12 00:00:00+00:00
2024-08-12 00:00:00+00:00,34.8975,40.0,19.300573,35.53072,13.0,0.0,0.0,0.0,0.0,17.0,46900.0,19.681828,129.80553,1.65,1.7,1.0,Dallas,32.78,-96.8,Dallas 2024-08-12 00:00:00+00:00
2024-08-12 00:00:00+00:00,31.8305,66.0,24.691975,36.462513,0.0,0.0,0.0,0.0,0.0,100.0,27300.0,13.004922,131.63345,1.6,1.6,1.0,Houston,29.76,-95.37,Houston 2024-08-12 00:00:00+00:00
2024-08-12 00:00:00+00:00,31.8535,22.0,7.5083942,29.557518,0.0,0.0,0.0,0.0,0.0,7.0,74800.0,11.269782,206.56499,3.8,3.8,1.0,Spokane,47.66,-117.43,Spokane 2024-08-12 00:00:00+00:00
2024-08-12 00:00:00+00:00,21.8305,53.0,11.825253,21.297405,0.0,0.0,0.0,0.0,0.0,55.0,37500.0,7.5170207,253.30067,1.1,1.4,1.0,Minneapolis,44.98,-93.27,Minneapolis 2024-08-12 00:00:00+00:00
2024-08-12 00:00:00+00:00,28.113,56.0,18.513256,28.998863,0.0,0.0,0.0,0.0,0.0,50.0,29700.0,15.463246,204.77512,4.3,4.3,1.0,Santa Ana,33.74,-117.87,Santa Ana 2024-08-12 00:00:00+00:00
2024-08-12 00:00:00+00:00,27.384499,64.0,19.974249,28.636429,65.0,0.0,0.0,0.0,0.0,20.0,28300.0,17.786331,144.0578,1.5,1.8,1.0,Oklahoma City,35.47,-97.52,Oklahoma City 2024-08-12 00:00:00+00:00
2024-08-12 00:00:00+00:00,28.1805,86.0,25.614965,34.374615,16.0,0.0,0.0,0.0,0.0,100.0,15900.0,6.519877,263.6599,0.4,0.45,1.0,St. Petersburg,27.77,-82.64,St. Petersburg 2024-08-12 00:00:00+00:00
2024-08-12 00:00:00+00:00,39.2805,27.0,16.853022,39.968777,0.0,0.0,0.0,0.0,0.0,13.0,66400.0,11.681987,213.6901,3.6,3.7,1.0,Scottsdale,33.49,-111.92,Scottsdale 2024-08-12 00:00:00+00:00
2024-08-12 00:00:00+00:00,31.987,53.0,21.21534,34.27124,13.0,0.0,0.0,0.0,0.0,3.0,36600.0,15.072783,139.84407,1.6,1.7,1.0,Garland,32.91,-96.64,Garland 2024-08-12 00:00:00+00:00
2024-08-12 00:00:00+00:00,28.8825,28.0,8.55184,25.374548,0.0,0.0,0.0,0.0,0.0,4.0,65800.0,21.407139,340.3461,2.5,2.9,1.0,Denver,39.74,-104.99,Denver 2024-08-12 00:00:00+00:00
2024-08-12 00:00:00+00:00,28.6935,80.0,24.90071,34.241005,3.0,0.0,0.0,0.0,0.0,4.0,18200.0,7.69592,100.784256,0.3,0.3,0.0,Miami,25.77,-80.19,Miami 2024-08-12 00:00:00+00:00
2024-08-12 00:00:00+00:00,18.759,77.0,14.642827,18.218006,0.0,0.0,0.0,0.0,0.0,36.0,18500.0,14.241629,286.1444,4.75,4.75,1.0,Oakland,37.8,-122.27,Oakland 2024-08-12 00:00:00+00:00
2024-08-12 00:00:00+00:00,33.408497,43.0,19.128912,34.22615,0.0,0.0,0.0,0.0,0.0,0.0,44100.0,18.25026,284.85864,4.0,4.3,1.0,Riverside,33.98,-117.38,Riverside 2024-08-12 00:00:00+00:00
2024-08-12 00:00:00+00:00,21.786999,51.0,11.203189,20.4166,0.0,0.0,0.0,0.0,0.0,0.0,38000.0,11.928989,275.19434,0.6,0.65,1.0,Detroit,42.33,-83.05,Detroit 2024-08-12 00:00:00+00:00
2024-08-12 00:00:00+00:00,37.078,37.0,19.977259,38.13827,0.0,0.0,0.0,0.0,0.0,0.0,49900.0,19.008545,142.69597,2.05,2.05,1.0,Laredo,27.53,-99.49,Laredo 2024-08-12 00:00:00+00:00
2024-08-12 00:00:00+00:00,39.1785,26.0,16.173239,38.526466,0.0,0.0,0.0,0.0,0.0,40.0,69000.0,18.947083,165.69969,3.9,3.9,1.0,Henderson,36.04,-115.05,Henderson 2024-08-12 00:00:00+00:00
2024-08-12 00:00:00+00:00,25.932999,85.0,23.215902,31.293938,29.0,0.0,0.0,0.0,0.0,7.0,16300.0,1.8,323.13,0.35,0.35,1.0,Raleigh,35.78,-78.64,Raleigh 2024-08-12 00:00:00+00:00
2024-08-12 00:00:00+00:00,23.5695,41.0,9.552402,22.075186,0.0,0.0,0.0,0.0,0.0,52.0,49700.0,9.47012,261.2539,1.15,1.4,1.0,Saint Paul,44.95,-93.1,Saint Paul 2024-08-12 00:00:00+00:00
2024-08-12 00:00:00+00:00,39.687,25.0,15.986376,40.815655,0.0,0.0,0.0,0.0,0.0,0.0,68700.0,6.2145634,259.9921,3.6,3.7,1.0,Phoenix,33.45,-112.07,Phoenix 2024-08-12 00:00:00+00:00
2024-08-12 00:00:00+00:00,34.776,44.0,20.731354,36.273315,0.0,0.0,0.0,0.0,0.0,0.0,45000.0,18.681883,115.083565,1.95,1.95,1.0,San Antonio,29.42,-98.49,San Antonio 2024-08-12 00:00:00+00:00
2024-08-12 00:00:00+00:00,28.95,80.0,25.150093,34.13437,81.0,0.0,0.0,0.0,0.0,86.0,19400.0,11.304229,232.76509,0.05,0.45,1.0,Jacksonville,30.33,-81.65,Jacksonville 2024-08-12 00:00:00+00:00
2024-08-12 00:00:00+00:00,24.2915,79.0,20.415789,27.778046,0.0,0.0,0.0,0.0,0.0,6.0,19400.0,4.0249224,26.564985,0.3,0.3,1.0,Richmond,37.54,-77.43,Richmond 2024-08-12 00:00:00+00:00
2024-08-12 00:00:00+00:00,34.198,44.0,20.210262,36.40755,0.0,0.0,0.0,0.0,0.0,0.0,43500.0,11.966954,133.7812,1.75,1.75,1.0,Austin,30.27,-97.74,Austin 2024-08-12 00:00:00+00:00
2024-08-12 00:00:00+00:00,33.7415,45.0,20.16157,34.73045,13.0,0.0,0.0,0.0,0.0,6.0,40700.0,20.172853,145.17545,1.65,1.7,1.0,Plano,33.02,-96.7,Plano 2024-08-12 00:00:00+00:00
2024-08-12 00:00:00+00:00,38.4435,29.0,17.26906,39.921566,0.0,0.0,0.0,0.0,0.0,2.0,61500.0,7.491114,234.78232,3.55,3.65,1.0,Mesa,33.42,-111.83,Mesa 2024-08-12 00:00:00+00:00
2024-08-12 00:00:00+00:00,39.8195,9.0,1.0137504,36.446106,0.0,0.0,0.0,0.0,0.0,0.0,90000.0,12.031756,321.07245,4.5,4.5,1.0,Fresno,36.73,-119.79,Fresno 2024-08-12 00:00:00+00:00
2024-08-12 00:00:00+00:00,13.533,90.0,11.923981,12.67181,90.0,0.7,0.3,0.4,0.0,100.0,24140.0,10.00256,210.25635,0.6,4.4,1.0,Anchorage,61.22,-149.89,Anchorage 2024-08-12 00:00:00+00:00
2024-08-12 00:00:00+00:00,32.259,52.0,21.155693,35.59531,3.0,0.0,0.0,0.0,0.0,3.0,36300.0,7.6367526,8.130019,1.1,1.1,1.0,New Orleans,29.95,-90.07,New Orleans 2024-08-12 00:00:00+00:00
2024-08-12 00:00:00+00:00,41.6325,7.0,-1.1208093,37.28385,0.0,0.0,0.0,0.0,0.0,0.0,90000.0,16.171976,343.1785,4.45,4.45,1.0,Bakersfield,35.37,-119.02,Bakersfield 2024-08-12 00:00:00+00:00
2024-08-12 00:00:00+00:00,24.998,50.0,13.855773,24.691586,0.0,0.0,0.0,0.0,0.0,1.0,39700.0,10.636766,293.9625,0.2,0.2,1.0,Philadelphia,39.95,-75.17,Philadelphia 2024-08-12 00:00:00+00:00
2024-08-12 00:00:00+00:00,24.8825,84.0,21.99228,29.151112,3.0,0.0,0.0,0.0,0.0,84.0,17300.0,4.452954,75.96373,0.25,0.25,1.0,Chesapeake,36.77,-76.29,Chesapeake 2024-08-12 00:00:00+00:00
2024-08-12 00:00:00+00:00,21.365501,72.0,16.110693,21.793543,0.0,0.0,0.0,0.0,0.0,100.0,20900.0,11.503113,110.13639,1.8,1.8,1.0,Lincoln,40.81,-96.68,Lincoln 2024-08-12 00:00:00+00:00
2024-08-12 00:00:00+00:00,35.5065,28.0,14.212052,36.003372,0.0,0.0,0.0,0.0,0.0,0.0,64600.0,5.937272,284.03625,3.65,3.65,1.0,Tucson,32.22,-110.97,Tucson 2024-08-12 00:00:00+00:00
2024-08-12 00:00:00+00:00,32.497,25.0,9.938412,30.919872,0.0,0.0,0.0,0.0,0.0,85.0,67400.0,10.739832,309.55963,3.1,3.1,1.0,Albuquerque,35.08,-106.65,Albuquerque 2024-08-12 00:00:00+00:00
2024-08-12 00:00:00+00:00,23.6215,44.0,10.655699,22.115557,0.0,0.0,0.0,0.0,0.0,0.0,45500.0,11.720751,280.6196,0.95,0.95,1.0,Milwaukee,43.04,-87.91,Milwaukee 2024-08-12 00:00:00+00:00
2024-08-12 00:00:00+00:00,24.567501,88.0,22.447289,28.92334,65.0,0.0,0.0,0.0,0.0,100.0,15500.0,5.6233797,140.19447,0.4,0.4,1.0,Orlando,28.54,-81.38,Orlando 2024-08-12 00:00:00+00:00
2024-08-12 00:00:00+00:00,24.6915,81.0,21.211193,28.683979,3.0,0.0,0.0,0.0,0.0,100.0,19100.0,3.4152596,71.564964,0.25,0.25,1.0,Norfolk,36.85,-76.29,Norfolk 2024-08-12 00:00:00+00:00
2024-08-12 00:00:00+00:00,27.2435,63.0,19.587046,30.05083,0.0,0.0,0.0,0.0,0.0,0.0,28900.0,5.8048253,29.744795,0.4,0.4,1.0,Winston-Salem,36.1,-80.26,Winston-Salem 2024-08-12 00:00:00+00:00
2024-08-12 00:00:00+00:00,23.472,51.0,12.755806,21.773699,0.0,0.0,0.0,0.0,0.0,100.0,36000.0,17.581125,259.3804,0.55,0.55,1.0,Cleveland,41.5,-81.69,Cleveland 2024-08-12 00:00:00+00:00
2024-08-12 00:00:00+00:00,24.8195,84.0,21.930626,28.55655,16.0,0.0,0.0,0.0,0.0,99.0,17300.0,7.8625183,164.05453,0.75,1.8,1.0,Wichita,37.69,-97.34,Wichita 2024-08-12 00:00:00+00:00
2024-08-12 00:00:00+00:00,33.969997,53.0,23.04553,35.857933,6.0,0.0,0.0,0.0,0.0,0.0,36100.0,24.826954,119.53869,1.75,1.75,1.0,Fort Worth,32.75,-97.33,Fort Worth 2024-08-12 00:00:00+00:00
2024-08-12 01:00:00+00:00,39.6195,8.0,-0.7600013,35.471096,0.0,0.0,0.0,0.0,0.0,1.0,90000.0,13.0447235,332.02063,2.7,2.7,1.0,Fresno,36.73,-119.79,Fresno 2024-08-12 01:00:00+00:00
2024-08-12 01:00:00+00:00,34.376,44.0,20.37075,35.89108,0.0,0.0,0.0,0.0,0.0,0.0,45300.0,17.287498,121.372955,0.55,0.55,1.0,San Antonio,29.42,-98.49,San Antonio 2024-08-12 01:00:00+00:00
2024-08-12 01:00:00+00:00,16.332499,85.0,13.804992,14.51898,0.0,0.0,0.0,0.0,0.0,32.0,14500.0,20.880001,270.0,3.0,3.0,1.0,San Francisco,37.77,-122.42,San Francisco 2024-08-12 01:00:00+00:00
2024-08-12 01:00:00+00:00,26.513,70.0,20.595829,28.552666,0.0,0.0,0.0,0.0,0.0,15.0,21200.0,14.565548,230.01317,2.3,2.5,1.0,Santa Ana,33.74,-117.87,Santa Ana 2024-08-12 01:00:00+00:00
2024-08-12 01:00:00+00:00,37.8435,28.0,16.204113,38.74795,0.0,0.0,0.0,0.0,0.0,3.0,64000.0,8.373386,205.4633,1.85,1.85,1.0,Mesa,33.42,-111.83,Mesa 2024-08-12 01:00:00+00:00
2024-08-12 01:00:00+00:00,37.9065,28.0,16.25778,38.741325,0.0,0.0,0.0,0.0,0.0,44.0,64300.0,9.0,216.86998,1.85,1.85,1.0,Gilbert,33.35,-111.79,Gilbert 2024-08-12 01:00:00+00:00
2024-08-12 01:00:00+00:00,33.6975,42.0,19.01105,34.609615,12.0,0.0,0.0,0.0,0.0,10.0,43900.0,16.831684,131.53168,0.45,0.45,1.0,Dallas,32.78,-96.8,Dallas 2024-08-12 01:00:00+00:00
2024-08-12 01:00:00+00:00,32.2915,49.0,20.220661,33.63907,11.0,0.0,0.0,0.0,0.0,6.0,37900.0,17.935081,141.51978,0.45,0.45,1.0,Plano,33.02,-96.7,Plano 2024-08-12 01:00:00+00:00
2024-08-12 01:00:00+00:00,30.845499,70.0,24.738739,35.686466,18.0,0.0,0.0,0.0,0.0,26.0,22900.0,11.792404,102.33907,0.0,0.0,0.0,Hialeah,25.86,-80.3,Hialeah 2024-08-12 01:00:00+00:00
2024-08-12 01:00:00+00:00,38.578503,26.0,15.666986,36.56772,26.0,0.0,0.0,0.0,0.0,17.0,65900.0,26.882141,159.62349,2.1,2.1,1.0,Henderson,36.04,-115.05,Henderson 2024-08-12 01:00:00+00:00
2024-08-12 01:00:00+00:00,38.330498,24.0,14.21507,38.426453,0.0,0.0,0.0,0.0,0.0,45.0,69900.0,8.669949,184.76355,1.85,1.85,1.0,Scottsdale,33.49,-111.92,Scottsdale 2024-08-12 01:00:00+00:00
2024-08-12 01:00:00+00:00,25.233,97.0,24.722218,30.722012,31.0,0.0,0.0,0.0,0.0,89.0,12200.0,7.342588,101.3099,0.0,0.0,0.0,Raleigh,35.78,-78.64,Raleigh 2024-08-12 01:00:00+00:00
2024-08-12 01:00:00+00:00,28.8865,55.0,18.943853,30.358631,0.0,0.0,0.0,0.0,0.0,6.0,32000.0,12.819235,231.84273,2.5,2.5,1.0,Los Angeles,34.05,-118.24,Los Angeles 2024-08-12 01:00:00+00:00
2024-08-12 01:00:00+00:00,33.8065,41.0,18.722754,34.095295,13.0,0.0,0.0,0.0,0.0,15.0,43800.0,20.172853,124.82456,0.45,0.45,1.0,Irving,32.81,-96.95,Irving 2024-08-12 01:00:00+00:00
2024-08-12 01:00:00+00:00,21.9875,79.0,18.177828,23.45011,25.0,0.0,0.0,0.0,0.0,100.0,18400.0,10.495713,67.83361,0.45,0.45,1.0,Kansas City,39.1,-94.58,Kansas City 2024-08-12 01:00:00+00:00
2024-08-12 01:00:00+00:00,31.3035,22.0,7.051414,29.296139,0.0,0.0,0.0,0.0,0.0,9.0,74900.0,8.534353,207.64589,2.25,2.35,1.0,Spokane,47.66,-117.43,Spokane 2024-08-12 01:00:00+00:00
2024-08-12 01:00:00+00:00,20.7115,68.0,14.593663,20.335121,0.0,0.0,0.0,0.0,0.0,4.0,22900.0,12.979984,273.17978,2.75,2.75,1.0,Tacoma,47.25,-122.44,Tacoma 2024-08-12 01:00:00+00:00
2024-08-12 01:00:00+00:00,24.617,73.0,19.45516,27.213234,95.0,0.0,0.0,0.0,0.0,100.0,20200.0,6.830519,198.43504,1.9,2.4,1.0,San Diego,32.72,-117.16,San Diego 2024-08-12 01:00:00+00:00
2024-08-12 01:00:00+00:00,23.241499,83.0,20.192513,26.450426,0.0,0.0,0.0,0.0,0.0,2.0,17500.0,5.154415,24.775122,0.0,0.0,0.0,Richmond,37.54,-77.43,Richmond 2024-08-12 01:00:00+00:00
2024-08-12 01:00:00+00:00,21.3,91.0,19.770464,24.33654,22.0,0.0,0.0,0.0,0.0,82.0,13300.0,4.8965297,53.972538,0.0,0.0,0.0,Virginia Beach,36.85,-75.98,Virginia Beach 2024-08-12 01:00:00+00:00
2024-08-12 01:00:00+00:00,24.241499,87.0,21.938965,28.81118,21.0,0.0,0.0,0.0,0.0,100.0,16500.0,2.1897945,9.462248,0.0,0.0,0.0,Norfolk,36.85,-76.29,Norfolk 2024-08-12 01:00:00+00:00
2024-08-12 01:00:00+00:00,23.0695,87.0,20.78703,26.549463,95.0,0.0,0.0,0.0,0.0,100.0,14800.0,5.3999996,216.86998,1.95,2.4,1.0,Chula Vista,32.64,-117.08,Chula Vista 2024-08-12 01:00:00+00:00
2024-08-12 01:00:00+00:00,26.1845,72.0,20.738373,28.224186,77.0,0.0,0.0,0.0,0.0,1.0,23600.0,15.077082,146.68936,0.55,0.55,1.0,Oklahoma City,35.47,-97.52,Oklahoma City 2024-08-12 01:00:00+00:00
2024-08-12 01:00:00+00:00,30.237,57.0,20.776243,32.67022,11.0,0.0,0.0,0.0,0.0,0.0,32800.0,12.475961,133.83095,0.4,0.45,1.0,Garland,32.91,-96.64,Garland 2024-08-12 01:00:00+00:00
2024-08-12 01:00:00+00:00,41.330498,17.0,11.399861,36.60146,33.0,0.0,0.0,0.0,0.0,100.0,81000.0,35.259792,153.95824,2.3,2.3,1.0,Las Vegas,36.17,-115.14,Las Vegas 2024-08-12 01:00:00+00:00
2024-08-12 01:00:00+00:00,36.328,34.0,17.964218,36.37733,0.0,0.0,0.0,0.0,0.0,0.0,53800.0,19.406637,139.51407,0.6,0.6,1.0,Laredo,27.53,-99.49,Laredo 2024-08-12 01:00:00+00:00
2024-08-12 01:00:00+00:00,23.324001,59.0,14.862337,24.210201,0.0,0.0,0.0,0.0,0.0,33.0,32000.0,5.00128,210.25635,0.2,0.2,0.0,St. Louis,38.63,-90.2,St. Louis 2024-08-12 01:00:00+00:00
2024-08-12 01:00:00+00:00,18.55,64.0,11.6097975,18.295004,0.0,0.0,0.0,0.0,0.0,0.0,28700.0,5.154415,294.77512,0.1,0.1,0.0,Fort Wayne,41.08,-85.14,Fort Wayne 2024-08-12 01:00:00+00:00
2024-08-12 01:00:00+00:00,27.2825,24.0,4.948515,24.305191,0.0,0.0,0.0,0.0,0.0,99.0,71800.0,11.966953,338.83865,1.1,1.3,1.0,Denver,39.74,-104.99,Denver 2024-08-12 01:00:00+00:00
2024-08-12 01:00:00+00:00,38.637,27.0,16.307606,39.33265,0.0,0.0,0.0,0.0,0.0,3.0,65300.0,10.086427,272.04535,1.85,1.85,1.0,Phoenix,33.45,-112.07,Phoenix 2024-08-12 01:00:00+00:00
2024-08-12 01:00:00+00:00,30.617,9.0,-5.867665,24.57326,0.0,0.0,0.0,0.0,0.0,31.0,90000.0,21.707731,264.2895,1.55,2.85,1.0,Reno,39.53,-119.81,Reno 2024-08-12 01:00:00+00:00
2024-08-12 01:00:00+00:00,21.5695,50.0,10.704719,21.208586,0.0,0.0,0.0,0.0,0.0,58.0,39800.0,3.9763298,275.19434,0.35,0.4,1.0,Saint Paul,44.95,-93.1,Saint Paul 2024-08-12 01:00:00+00:00
2024-08-12 01:00:00+00:00,32.597,24.0,9.413873,31.800777,0.0,0.0,0.0,0.0,0.0,93.0,69900.0,4.379589,9.462248,0.15,1.35,1.0,Albuquerque,35.08,-106.65,Albuquerque 2024-08-12 01:00:00+00:00
2024-08-12 01:00:00+00:00,28.0935,85.0,25.332804,34.551098,18.0,0.0,0.0,0.0,0.0,6.0,15700.0,3.4152596,108.43504,0.0,0.0,0.0,Miami,25.77,-80.19,Miami 2024-08-12 01:00:00+00:00
2024-08-12 01:00:00+00:00,20.6455,56.0,11.558366,20.692251,0.0,0.0,0.0,0.0,0.0,1.0,33100.0,2.968636,284.03625,0.1,0.1,0.0,Indianapolis,39.77,-86.16,Indianapolis 2024-08-12 01:00:00+00:00
2024-08-12 01:00:00+00:00,13.183,90.0,11.578355,11.748733,64.0,2.2,0.0,2.2,0.0,100.0,24140.0,13.18308,214.9921,0.9,3.8,1.0,Anchorage,61.22,-149.89,Anchorage 2024-08-12 01:00:00+00:00
2024-08-12 01:00:00+00:00,17.637,68.0,11.659342,16.983896,63.0,0.0,0.0,0.0,0.0,2.0,25100.0,7.9932976,262.23492,0.0,0.0,0.0,Buffalo,42.89,-78.88,Buffalo 2024-08-12 01:00:00+00:00
2024-08-12 01:00:00+00:00,17.759,82.0,14.645549,17.319427,0.0,0.0,0.0,0.0,0.0,24.0,16500.0,13.556282,280.71307,2.95,3.0,1.0,Oakland,37.8,-122.27,Oakland 2024-08-12 01:00:00+00:00
2024-08-12 01:00:00+00:00,30.130499,65.0,22.82669,33.47481,0.0,0.0,0.0,0.0,0.0,49.0,27600.0,14.007655,154.09355,0.35,0.35,1.0,Houston,29.76,-95.37,Houston 2024-08-12 01:00:00+00:00
2024-08-12 01:00:00+00:00,24.4675,91.0,22.901197,28.689,45.0,0.0,0.0,0.0,0.0,100.0,13600.0,8.350138,172.56868,0.0,0.0,0.0,Orlando,28.54,-81.38,Orlando 2024-08-12 01:00:00+00:00
2024-08-12 01:00:00+00:00,24.2825,87.0,21.979263,28.74849,21.0,0.0,0.0,0.0,0.0,100.0,15900.0,3.0547013,44.999897,0.0,0.0,0.0,Chesapeake,36.77,-76.29,Chesapeake 2024-08-12 01:00:00+00:00
2024-08-12 01:00:00+00:00,31.7085,44.0,17.964613,32.22068,0.0,0.0,0.0,0.0,0.0,0.0,42100.0,16.279802,288.03436,1.85,2.45,1.0,Riverside,33.98,-117.38,Riverside 2024-08-12 01:00:00+00:00
2024-08-12 01:00:00+00:00,30.6925,51.0,19.400084,32.470707,12.0,0.0,0.0,0.0,0.0,44.0,24140.0,21.575987,64.2901,7.25,7.7,1.0,Honolulu,21.31,-157.86,Honolulu 2024-08-12 01:00:00+00:00
2024-08-12 01:00:00+00:00,27.630499,84.0,24.681007,33.52768,27.0,0.0,0.0,0.0,0.0,100.0,16800.0,4.3349743,228.36655,0.0,0.0,0.0,St. Petersburg,27.77,-82.64,St. Petersburg 2024-08-12 01:00:00+00:00
2024-08-12 01:00:00+00:00,25.15,91.0,23.575718,29.271553,83.0,78.5,78.5,0.0,0.0,100.0,13300.0,11.792404,238.73633,0.0,0.0,0.0,Jacksonville,30.33,-81.65,Jacksonville 2024-08-12 01:00:00+00:00
2024-08-12 01:00:00+00:00,24.896,84.0,22.005486,28.32904,51.0,0.0,0.0,0.0,0.0,100.0,16800.0,10.233123,129.28938,0.45,0.45,1.0,Tulsa,36.15,-95.99,Tulsa 2024-08-12 01:00:00+00:00
2024-08-12 01:00:00+00:00,19.786999,54.0,10.212231,18.1816,0.0,0.0,0.0,0.0,0.0,0.0,35700.0,11.525623,268.2101,0.05,0.05,0.0,Detroit,42.33,-83.05,Detroit 2024-08-12 01:00:00+00:00
2024-08-12 01:00:00+00:00,23.8195,82.0,20.56057,27.107128,30.0,0.0,0.0,0.0,0.0,0.0,17500.0,5.904439,142.43134,0.6,0.6,1.0,Wichita,37.69,-97.34,Wichita 2024-08-12 01:00:00+00:00
2024-08-12 01:00:00+00:00,20.380499,57.0,11.5789,20.286842,0.0,0.0,0.0,0.0,0.0,55.0,33600.0,3.9763298,275.19434,0.35,0.45,1.0,Minneapolis,44.98,-93.27,Minneapolis 2024-08-12 01:00:00+00:00
2024-08-12 01:00:00+00:00,24.741,57.0,15.650621,25.197443,8.0,0.0,0.0,0.0,0.0,21.0,31500.0,10.028439,338.9624,1.15,1.25,1.0,Colorado Springs,38.83,-104.82,Colorado Springs 2024-08-12 01:00:00+00:00
2024-08-12 01:00:00+00:00,22.722,52.0,12.360178,22.091066,14.0,0.0,0.0,0.0,0.0,3.0,35500.0,9.3669195,272.20255,0.0,0.05,0.0,Cleveland,41.5,-81.69,Cleveland 2024-08-12 01:00:00+00:00
2024-08-12 01:00:00+00:00,21.163,51.0,10.628015,19.945803,4.0,0.0,0.0,0.0,0.0,0.0,37500.0,9.693296,291.80148,0.05,0.05,0.0,Toledo,41.65,-83.54,Toledo 2024-08-12 01:00:00+00:00
2024-08-12 01:00:00+00:00,24.877998,56.0,15.5019865,24.442123,0.0,0.0,0.0,0.0,0.0,1.0,34200.0,15.745627,10.539137,2.85,2.85,1.0,Portland,45.52,-122.68,Portland 2024-08-12 01:00:00+00:00
2024-08-12 01:00:00+00:00,20.7995,49.0,9.694954,19.792593,0.0,0.0,0.0,0.0,0.0,36.0,38900.0,6.4096174,308.15726,0.05,0.05,0.0,Cincinnati,39.1,-84.51,Cincinnati 2024-08-12 01:00:00+00:00
2024-08-12 01:00:00+00:00,29.75,74.0,24.617615,33.206146,1.0,0.0,0.0,0.0,0.0,0.0,20900.0,20.767975,123.690094,0.45,0.45,1.0,Corpus Christi,27.8,-97.4,Corpus Christi 2024-08-12 01:00:00+00:00
2024-08-12 01:00:00+00:00,25.637,42.0,11.772199,24.540842,0.0,0.0,0.0,0.0,0.0,97.0,46700.0,11.246759,230.19447,0.0,0.0,0.0,Jersey City,40.71,-74.07,Jersey City 2024-08-12 01:00:00+00:00
2024-08-12 01:00:00+00:00,27.107,78.0,22.939268,31.882397,44.0,0.0,0.0,0.0,0.0,43.0,20400.0,4.68,90.0,0.0,0.0,0.0,Charlotte,35.23,-80.84,Charlotte 2024-08-12 01:00:00+00:00
2024-08-12 01:00:00+00:00,29.25,52.0,18.383291,30.698723,0.0,0.0,0.0,0.0,0.0,1.0,34800.0,11.183201,213.17853,2.55,2.55,1.0,Glendale,34.14,-118.25,Glendale 2024-08-12 01:00:00+00:00
2024-08-12 01:00:00+00:00,20.7305,70.0,15.061806,19.78705,0.0,0.0,0.0,0.0,0.0,8.0,22200.0,18.079027,324.72748,2.75,2.95,1.0,Fremont,37.55,-121.98,Fremont 2024-08-12 01:00:00+00:00
2024-08-12 01:00:00+00:00,37.595,12.0,3.3672523,35.304016,0.0,0.0,0.0,0.0,0.0,0.0,90000.0,5.0528407,184.08554,1.25,1.25,1.0,El Paso,31.76,-106.49,El Paso 2024-08-12 01:00:00+00:00
2024-08-12 01:00:00+00:00,31.5325,51.0,20.172112,34.857662,0.0,0.0,0.0,0.0,0.0,0.0,38600.0,4.2136917,289.9832,0.15,0.15,0.0,Baton Rouge,30.45,-91.15,Baton Rouge 2024-08-12 01:00:00+00:00
2024-08-12 01:00:00+00:00,21.5655,70.0,15.861248,22.306158,11.0,0.0,0.0,0.0,0.0,100.0,22100.0,8.669949,85.23644,0.6,0.6,1.0,Lincoln,40.81,-96.68,Lincoln 2024-08-12 01:00:00+00:00
2024-08-12 01:00:00+00:00,30.75,33.0,12.632664,29.11084,0.0,0.0,0.0,0.0,0.0,10.0,56600.0,16.854767,199.9832,2.9,2.9,1.0,Sacramento,38.58,-121.49,Sacramento 2024-08-12 01:00:00+00:00
2024-08-12 01:00:00+00:00,40.8825,7.0,-1.6626636,36.18993,0.0,0.0,0.0,0.0,0.0,0.0,90000.0,15.893093,346.90808,2.65,2.65,1.0,Bakersfield,35.37,-119.02,Bakersfield 2024-08-12 01:00:00+00:00
2024-08-12 01:00:00+00:00,24.348,88.0,22.231249,28.611885,5.0,0.0,0.0,0.0,0.0,0.0,15700.0,5.4119864,86.186005,0.0,0.0,0.0,Greensboro,36.07,-79.79,Greensboro 2024-08-12 01:00:00+00:00
2024-08-12 01:00:00+00:00,35.0065,29.0,14.326999,34.63523,0.0,0.0,0.0,0.0,0.0,1.0,61700.0,12.181625,288.9705,1.8,1.8,1.0,Tucson,32.22,-110.97,Tucson 2024-08-12 01:00:00+00:00
2024-08-12 01:00:00+00:00,21.98,50.0,11.082176,21.933651,0.0,0.0,0.0,0.0,0.0,14.0,38300.0,2.5959969,123.690094,0.15,0.15,0.0,Chicago,41.88,-87.63,Chicago 2024-08-12 01:00:00+00:00
2024-08-12 01:00:00+00:00,23.124,52.0,12.7314205,22.699984,0.0,0.0,0.0,0.0,0.0,24.0,37800.0,8.78872,235.0079,0.0,0.0,0.0,Newark,40.73,-74.17,Newark 2024-08-12 01:00:00+00:00
2024-08-12 01:00:00+00:00,20.1175,65.0,13.332669,20.444658,0.0,0.0,0.0,0.0,0.0,2.0,28100.0,5.0528407,4.085537,0.1,0.1,0.0,Louisville,38.25,-85.76,Louisville 2024-08-12 01:00:00+00:00
2024-08-12 01:00:00+00:00,21.671501,50.0,10.798513,20.771765,0.0,0.0,0.0,0.0,0.0,0.0,38600.0,7.8625183,254.05453,0.2,0.2,0.0,Milwaukee,43.04,-87.91,Milwaukee 2024-08-12 01:00:00+00:00
2024-08-12 01:00:00+00:00,21.3045,54.0,11.620887,20.873127,0.0,0.0,0.0,0.0,0.0,0.0,34600.0,6.379216,286.38962,0.05,0.05,0.0,Lexington,38.04,-84.5,Lexington 2024-08-12 01:00:00+00:00
2024-08-12 01:00:00+00:00,27.119501,87.0,24.767332,32.284084,27.0,0.0,0.0,0.0,0.0,100.0,15600.0,9.746631,85.76369,0.0,0.0,0.0,Tampa,27.95,-82.46,Tampa 2024-08-12 01:00:00+00:00
2024-08-12 01:00:00+00:00,22.884499,53.0,12.8009815,23.549168,0.0,0.0,0.0,0.0,0.0,1.0,35800.0,1.484318,345.9637,0.0,0.0,0.0,Baltimore,39.29,-76.61,Baltimore 2024-08-12 01:00:00+00:00
2024-08-12 01:00:00+00:00,20.75,56.0,11.655785,20.52516,0.0,0.0,0.0,0.0,0.0,7.0,33100.0,5.04,270.0,0.2,0.25,1.0,Madison,43.07,-89.4,Madison 2024-08-12 01:00:00+00:00
2024-08-12 01:00:00+00:00,25.3635,42.0,11.526188,24.640167,0.0,0.0,0.0,0.0,0.0,97.0,47300.0,8.161764,228.57643,0.0,0.0,0.0,New York,40.71,-74.01,New York 2024-08-12 01:00:00+00:00
2024-08-12 01:00:00+00:00,19.991,51.0,9.547425,18.961132,0.0,0.0,0.0,0.0,0.0,0.0,37200.0,6.28713,256.75946,0.05,0.05,0.0,Columbus,39.96,-83.0,Columbus 2024-08-12 01:00:00+00:00
2024-08-12 01:00:00+00:00,41.0565,18.0,12.045791,36.640312,33.0,0.0,0.0,0.0,0.0,50.0,81600.0,34.509335,159.86362,2.3,2.3,1.0,North Las Vegas,36.2,-115.12,North Las Vegas 2024-08-12 01:00:00+00:00
2024-08-12 01:00:00+00:00,24.280499,46.0,11.9249115,23.50488,0.0,0.0,0.0,0.0,0.0,0.0,41200.0,9.3876505,184.39862,0.0,0.0,0.0,Boston,42.36,-71.06,Boston 2024-08-12 01:00:00+00:00
2024-08-12 01:00:00+00:00,34.518997,14.0,3.1547027,31.320297,0.0,0.0,0.0,0.0,0.0,0.0,90000.0,11.013882,348.6901,2.3,2.3,1.0,Boise,43.62,-116.2,Boise 2024-08-12 01:00:00+00:00
2024-08-12 01:00:00+00:00,32.469997,58.0,23.144077,35.382942,17.0,0.0,0.0,0.0,0.0,0.0,31900.0,18.218275,119.604355,0.5,0.5,1.0,Fort Worth,32.75,-97.33,Fort Worth 2024-08-12 01:00:00+00:00
2024-08-12 01:00:00+00:00,23.2305,85.0,20.567461,25.293251,0.0,0.0,0.0,0.0,0.0,6.0,14700.0,14.33234,205.27768,2.5,2.55,1.0,Long Beach,33.77,-118.19,Long Beach 2024-08-12 01:00:00+00:00
2024-08-12 01:00:00+00:00,26.8955,64.0,19.511662,28.576756,0.0,0.0,0.0,0.0,0.0,4.0,24700.0,13.276144,220.60121,2.25,2.5,1.0,Irvine,33.68,-117.83,Irvine 2024-08-12 01:00:00+00:00
2024-08-12 01:00:00+00:00,38.0435,30.0,17.462915,39.362247,0.0,0.0,0.0,0.0,0.0,0.0,62700.0,9.1641035,224.9999,1.85,1.85,1.0,Chandler,33.31,-111.84,Chandler 2024-08-12 01:00:00+00:00
2024-08-12 01:00:00+00:00,26.802,26.0,5.694805,24.268154,0.0,0.0,0.0,0.0,0.0,99.0,69000.0,10.028439,291.03757,1.2,1.3,1.0,Aurora,39.73,-104.83,Aurora 2024-08-12 01:00:00+00:00
2024-08-12 01:00:00+00:00,31.459,56.0,21.62517,34.778168,2.0,0.0,0.0,0.0,0.0,0.0,32900.0,9.504272,142.69597,0.15,0.15,0.0,New Orleans,29.95,-90.07,New Orleans 2024-08-12 01:00:00+00:00
2024-08-12 01:00:00+00:00,19.439499,76.0,15.0985565,20.347717,0.0,0.0,0.0,0.0,0.0,11.0,18900.0,5.4833565,203.19862,2.55,2.7,1.0,Seattle,47.61,-122.33,Seattle 2024-08-12 01:00:00+00:00
2024-08-12 01:00:00+00:00,27.6565,59.0,18.921844,28.717709,0.0,0.0,0.0,0.0,0.0,6.0,28200.0,15.575981,236.3099,2.3,2.5,1.0,Anaheim,33.83,-117.91,Anaheim 2024-08-12 01:00:00+00:00
2024-08-12 01:00:00+00:00,27.624,44.0,14.275794,27.882442,0.0,0.0,0.0,0.0,0.0,1.0,44200.0,7.7879906,303.6901,0.05,0.05,0.0,Atlanta,33.75,-84.39,Atlanta 2024-08-12 01:00:00+00:00
2024-08-12 01:00:00+00:00,22.998,58.0,14.292174,23.089344,0.0,0.0,0.0,0.0,0.0,14.0,32800.0,9.0,323.13,0.0,0.0,0.0,Philadelphia,39.95,-75.17,Philadelphia 2024-08-12 01:00:00+00:00
2024-08-12 01:00:00+00:00,26.039,84.0,23.123909,29.822536,2.0,0.0,0.0,0.0,0.0,46.0,16800.0,12.24,360.0,0.0,0.0,0.0,Durham,35.99,-78.9,Durham 2024-08-12 01:00:00+00:00
2024-08-12 01:00:00+00:00,29.793499,35.0,12.693572,29.088497,0.0,0.0,0.0,0.0,0.0,100.0,55700.0,10.594036,260.21765,2.65,2.85,1.0,Stockton,37.96,-121.29,Stockton 2024-08-12 01:00:00+00:00
2024-08-12 01:00:00+00:00,21.880999,62.0,14.273661,22.298033,4.0,0.0,0.0,0.0,0.0,100.0,27800.0,6.725354,105.52418,0.55,0.55,1.0,Omaha,41.26,-95.94,Omaha 2024-08-12 01:00:00+00:00
2024-08-12 01:00:00+00:00,21.472,51.0,10.912852,20.965776,0.0,0.0,0.0,0.0,0.0,1.0,37800.0,5.3999996,233.13002,0.0,0.0,0.0,Pittsburgh,40.44,-79.99,Pittsburgh 2024-08-12 01:00:00+00:00
2024-08-12 01:00:00+00:00,34.8,23.0,10.61974,32.09632,0.0,0.0,0.0,0.0,0.0,0.0,73000.0,19.803272,178.95839,0.85,0.85,1.0,Lubbock,33.58,-101.88,Lubbock 2024-08-12 01:00:00+00:00
2024-08-12 01:00:00+00:00,23.354,53.0,13.235524,24.050549,0.0,0.0,0.0,0.0,0.0,8.0,36400.0,2.2768397,108.43504,0.0,0.0,0.0,Washington,38.91,-77.04,Washington 2024-08-12 01:00:00+00:00
2024-08-12 01:00:00+00:00,24.015501,67.0,17.510246,25.483372,0.0,0.0,0.0,0.0,0.0,99.0,26800.0,8.404285,46.73567,0.1,0.15,0.0,Memphis,35.15,-90.05,Memphis 2024-08-12 01:00:00+00:00
2024-08-12 01:00:00+00:00,32.513,53.0,21.700909,34.245274,13.0,0.0,0.0,0.0,0.0,1.0,35100.0,20.65848,112.5431,0.45,0.5,1.0,Arlington,32.74,-97.11,Arlington 2024-08-12 01:00:00+00:00
2024-08-12 01:00:00+00:00,31.048,56.0,21.243069,33.427803,0.0,0.0,0.0,0.0,0.0,5.0,32300.0,14.529915,131.98714,0.45,0.45,1.0,Austin,30.27,-97.74,Austin 2024-08-12 01:00:00+00:00
2024-08-12 01:00:00+00:00,24.2545,51.0,13.476558,24.675497,0.0,0.0,0.0,0.0,0.0,3.0,37100.0,4.73506,351.2539,0.1,0.1,0.0,Nashville,36.16,-86.78,Nashville 2024-08-12 01:00:00+00:00
2024-08-12 01:00:00+00:00,25.3435,69.0,19.245716,28.781044,8.0,0.0,0.0,0.0,0.0,0.0,25100.0,0.35999998,270.0,0.0,0.0,0.0,Winston-Salem,36.1,-80.26,Winston-Salem 2024-08-12 01:00:00+00:00
2024-08-12 01:00:00+00:00,22.974,60.0,14.794782,22.388908,0.0,0.0,0.0,0.0,0.0,4.0,28900.0,14.917212,340.25308,2.9,3.0,1.0,San Jose,37.34,-121.89,San Jose 2024-08-12 01:00:00+00:00
2024-08-12 02:00:00+00:00,22.9805,48.0,11.383559,21.63979,0.0,0.0,0.0,0.0,0.0,0.0,39100.0,12.10157,210.37904,0.0,0.0,0.0,Boston,42.36,-71.06,Boston 2024-08-12 02:00:00+00:00
2024-08-12 02:00:00+00:00,25.5845,76.0,21.039684,27.493238,88.0,0.0,0.0,0.0,0.0,0.0,21300.0,17.068707,152.35411,0.0,0.0,0.0,Oklahoma City,35.47,-97.52,Oklahoma City 2024-08-12 02:00:00+00:00
2024-08-12 02:00:00+00:00,31.1415,52.0,20.126348,32.916378,8.0,0.0,0.0,0.0,0.0,4.0,34800.0,14.689588,143.97253,0.0,0.0,0.0,Plano,33.02,-96.7,Plano 2024-08-12 02:00:00+00:00
2024-08-12 02:00:00+00:00,22.969501,79.0,19.13175,25.29102,44.0,0.0,0.0,0.0,0.0,1.0,19100.0,7.653705,138.81418,0.05,0.05,0.0,Wichita,37.69,-97.34,Wichita 2024-08-12 02:00:00+00:00
2024-08-12 02:00:00+00:00,18.55,67.0,12.305175,18.467813,0.0,0.0,0.0,0.0,0.0,0.0,25100.0,5.495161,238.39255,0.0,0.0,0.0,Madison,43.07,-89.4,Madison 2024-08-12 02:00:00+00:00
2024-08-12 02:00:00+00:00,24.6135,44.0,11.553413,23.324596,0.0,0.0,0.0,0.0,0.0,10.0,44300.0,12.10157,247.249,0.0,0.0,0.0,New York,40.71,-74.01,New York 2024-08-12 02:00:00+00:00
2024-08-12 02:00:00+00:00,18.5895,79.0,14.87621,18.646957,0.0,0.0,0.0,0.0,0.0,20.0,17900.0,10.739833,283.57043,1.3,1.4,1.0,Seattle,47.61,-122.33,Seattle 2024-08-12 02:00:00+00:00
2024-08-12 02:00:00+00:00,22.0805,89.0,20.182,24.93316,0.0,0.0,0.0,0.0,0.0,23.0,13200.0,7.5685663,205.34613,0.95,0.95,1.0,Long Beach,33.77,-118.19,Long Beach 2024-08-12 02:00:00+00:00
2024-08-12 02:00:00+00:00,23.741499,76.0,19.258312,26.806356,40.0,0.0,0.0,0.0,0.0,0.0,21400.0,2.968636,14.036275,0.0,0.0,0.0,Norfolk,36.85,-76.29,Norfolk 2024-08-12 02:00:00+00:00
2024-08-12 02:00:00+00:00,29.5,80.0,25.684818,34.145237,2.0,0.0,0.0,0.0,0.0,0.0,17400.0,17.447933,111.80147,0.0,0.0,0.0,Corpus Christi,27.8,-97.4,Corpus Christi 2024-08-12 02:00:00+00:00
2024-08-12 02:00:00+00:00,30.4935,29.0,10.455665,28.893612,0.0,0.0,0.0,0.0,0.0,18.0,66000.0,11.928989,275.19434,1.2,1.3,1.0,Stockton,37.96,-121.29,Stockton 2024-08-12 02:00:00+00:00
2024-08-12 02:00:00+00:00,22.25,86.0,19.79493,25.4638,42.0,0.0,0.0,0.0,0.0,24.0,16600.0,3.7585104,343.3007,0.0,0.0,0.0,Virginia Beach,36.85,-75.98,Virginia Beach 2024-08-12 02:00:00+00:00
2024-08-12 02:00:00+00:00,33.3065,31.0,13.893503,32.818165,0.0,0.0,0.0,0.0,0.0,2.0,59600.0,11.923557,298.88647,0.45,0.45,1.0,Tucson,32.22,-110.97,Tucson 2024-08-12 02:00:00+00:00
2024-08-12 02:00:00+00:00,19.119501,57.0,10.400574,18.485489,0.0,0.0,0.0,0.0,0.0,13.0,33600.0,5.2416787,254.05453,0.0,0.0,0.0,Saint Paul,44.95,-93.1,Saint Paul 2024-08-12 02:00:00+00:00
2024-08-12 02:00:00+00:00,27.1805,89.0,25.208529,33.303524,37.0,0.0,0.0,0.0,0.0,50.0,14500.0,5.154415,245.22488,0.0,0.0,0.0,St. Petersburg,27.77,-82.64,St. Petersburg 2024-08-12 02:00:00+00:00
2024-08-12 02:00:00+00:00,23.567001,77.0,19.299484,26.378527,89.0,0.0,0.0,0.0,0.0,100.0,18400.0,4.8433046,228.01286,0.7,0.85,1.0,San Diego,32.72,-117.16,San Diego 2024-08-12 02:00:00+00:00
2024-08-12 02:00:00+00:00,37.580498,26.0,14.824521,37.95495,0.0,0.0,0.0,0.0,0.0,2.0,68400.0,8.311245,175.03035,0.5,0.5,1.0,Scottsdale,33.49,-111.92,Scottsdale 2024-08-12 02:00:00+00:00
2024-08-12 02:00:00+00:00,20.865501,76.0,16.477661,21.80817,21.0,0.0,0.0,0.0,0.0,100.0,19900.0,9.007196,87.70944,0.05,0.05,0.0,Lincoln,40.81,-96.68,Lincoln 2024-08-12 02:00:00+00:00
2024-08-12 02:00:00+00:00,33.1065,41.0,18.09687,33.63032,16.0,0.0,0.0,0.0,0.0,47.0,45000.0,16.595179,130.60121,0.0,0.0,0.0,Irving,32.81,-96.95,Irving 2024-08-12 02:00:00+00:00
2024-08-12 02:00:00+00:00,19.0545,61.0,11.36043,18.895866,0.0,0.0,0.0,0.0,0.0,14.0,28900.0,3.96,360.0,0.0,0.0,0.0,Lexington,38.04,-84.5,Lexington 2024-08-12 02:00:00+00:00
2024-08-12 02:00:00+00:00,36.8785,31.0,16.978474,35.860504,51.0,0.0,0.0,0.0,0.0,54.0,59000.0,23.770906,181.73567,0.75,0.75,1.0,Henderson,36.04,-115.05,Henderson 2024-08-12 02:00:00+00:00
2024-08-12 02:00:00+00:00,32.528,54.0,22.020977,34.300415,0.0,0.0,0.0,0.0,0.0,0.0,32900.0,21.599998,143.13002,0.0,0.0,0.0,Laredo,27.53,-99.49,Laredo 2024-08-12 02:00:00+00:00
2024-08-12 02:00:00+00:00,23.154501,58.0,14.4386,23.8476,0.0,0.0,0.0,0.0,0.0,23.0,31600.0,5.2416787,15.945477,0.0,0.0,0.0,Nashville,36.16,-86.78,Nashville 2024-08-12 02:00:00+00:00
2024-08-12 02:00:00+00:00,32.2975,45.0,18.855453,33.883415,11.0,0.0,0.0,0.0,0.0,29.0,42000.0,11.720751,137.4896,0.0,0.0,0.0,Dallas,32.78,-96.8,Dallas 2024-08-12 02:00:00+00:00
2024-08-12 02:00:00+00:00,24.837,42.0,11.052527,22.759052,0.0,0.0,0.0,0.0,0.0,5.0,46300.0,16.454008,259.91946,0.0,0.0,0.0,Jersey City,40.71,-74.07,Jersey City 2024-08-12 02:00:00+00:00
2024-08-12 02:00:00+00:00,37.4695,12.0,3.2704976,33.53462,0.0,0.0,0.0,0.0,0.0,0.0,90000.0,16.199999,323.13,1.15,1.15,1.0,Fresno,36.73,-119.79,Fresno 2024-08-12 02:00:00+00:00
2024-08-12 02:00:00+00:00,20.781,67.0,14.430498,21.338398,9.0,0.0,0.0,0.0,0.0,100.0,24800.0,6.162207,96.70974,0.05,0.05,0.0,Omaha,41.26,-95.94,Omaha 2024-08-12 02:00:00+00:00
2024-08-12 02:00:00+00:00,21.454,65.0,14.600977,22.40493,0.0,0.0,0.0,0.0,0.0,0.0,27500.0,3.8939953,213.6901,0.0,0.0,0.0,Washington,38.91,-77.04,Washington 2024-08-12 02:00:00+00:00
2024-08-12 02:00:00+00:00,18.437,64.0,11.502715,17.817947,0.0,0.0,0.0,0.0,0.0,5.0,28800.0,7.42159,247.1663,0.0,0.0,0.0,Detroit,42.33,-83.05,Detroit 2024-08-12 02:00:00+00:00
2024-08-12 02:00:00+00:00,35.645,15.0,5.027394,33.68792,0.0,0.0,0.0,0.0,0.0,0.0,89400.0,5.0528407,175.91446,0.2,0.2,0.0,El Paso,31.76,-106.49,El Paso 2024-08-12 02:00:00+00:00
2024-08-12 02:00:00+00:00,29.3825,56.0,19.694263,32.767025,0.0,0.0,0.0,0.0,0.0,2.0,34300.0,2.1897945,99.46225,0.0,0.0,0.0,Baton Rouge,30.45,-91.15,Baton Rouge 2024-08-12 02:00:00+00:00
2024-08-12 02:00:00+00:00,30.748,59.0,21.81599,33.959248,0.0,0.0,0.0,0.0,0.0,0.0,29700.0,10.97262,131.00899,0.0,0.0,0.0,Austin,30.27,-97.74,Austin 2024-08-12 02:00:00+00:00
2024-08-12 02:00:00+00:00,32.1,29.0,11.834823,29.863785,0.0,0.0,0.0,0.0,0.0,0.0,62900.0,19.164719,174.61078,0.1,0.1,0.0,Lubbock,33.58,-101.88,Lubbock 2024-08-12 02:00:00+00:00
2024-08-12 02:00:00+00:00,31.847,21.0,6.823137,30.228367,0.0,0.0,0.0,0.0,0.0,20.0,78300.0,5.495161,238.39255,0.05,0.25,0.0,Albuquerque,35.08,-106.65,Albuquerque 2024-08-12 02:00:00+00:00
2024-08-12 02:00:00+00:00,28.837,64.0,21.348036,32.28815,8.0,0.0,0.0,0.0,0.0,41.0,28100.0,7.5942082,148.57048,0.0,0.0,0.0,Garland,32.91,-96.64,Garland 2024-08-12 02:00:00+00:00
2024-08-12 02:00:00+00:00,15.209001,91.0,13.748947,14.635134,0.0,0.0,0.0,0.0,0.0,100.0,200.0,12.245294,271.68463,1.4,1.4,1.0,Oakland,37.8,-122.27,Oakland 2024-08-12 02:00:00+00:00
2024-08-12 02:00:00+00:00,24.133,98.0,23.796766,28.692421,33.0,0.0,0.0,0.0,0.0,100.0,12200.0,9.726665,87.87895,0.0,0.0,0.0,Raleigh,35.78,-78.64,Raleigh 2024-08-12 02:00:00+00:00
2024-08-12 02:00:00+00:00,20.529999,52.0,10.33512,19.982914,0.0,0.0,0.0,0.0,0.0,8.0,35900.0,4.510787,118.61037,0.0,0.0,0.0,Chicago,41.88,-87.63,Chicago 2024-08-12 02:00:00+00:00
2024-08-12 02:00:00+00:00,28.1935,83.0,25.030733,33.903183,33.0,0.0,0.0,0.0,0.0,0.0,17200.0,7.172949,107.52566,0.0,0.0,0.0,Miami,25.77,-80.19,Miami 2024-08-12 02:00:00+00:00
2024-08-12 02:00:00+00:00,24.9825,26.0,4.1479983,22.610596,0.0,0.0,0.0,0.0,0.0,73.0,69300.0,6.696387,306.25394,0.25,0.25,1.0,Denver,39.74,-104.99,Denver 2024-08-12 02:00:00+00:00
2024-08-12 02:00:00+00:00,29.258501,54.0,18.994682,30.979393,0.0,0.0,0.0,0.0,0.0,3.0,32700.0,11.27553,286.6993,0.75,0.9,1.0,Riverside,33.98,-117.38,Riverside 2024-08-12 02:00:00+00:00
2024-08-12 02:00:00+00:00,37.787,29.0,16.707512,38.803432,0.0,0.0,0.0,0.0,0.0,0.0,63400.0,9.028754,246.50142,0.5,0.5,1.0,Phoenix,33.45,-112.07,Phoenix 2024-08-12 02:00:00+00:00
2024-08-12 02:00:00+00:00,18.7495,56.0,9.790354,18.30511,0.0,0.0,0.0,0.0,0.0,35.0,32800.0,2.7416782,336.8014,0.0,0.0,0.0,Cincinnati,39.1,-84.51,Cincinnati 2024-08-12 02:00:00+00:00
2024-08-12 02:00:00+00:00,20.421501,53.0,10.520429,19.515707,0.0,0.0,0.0,0.0,0.0,50.0,35700.0,7.342588,258.6901,0.0,0.0,0.0,Milwaukee,43.04,-87.91,Milwaukee 2024-08-12 02:00:00+00:00
2024-08-12 02:00:00+00:00,37.5305,28.0,15.937459,35.317253,67.0,0.0,0.0,0.0,0.0,2.0,65100.0,29.01743,168.55069,0.75,0.8,1.0,Las Vegas,36.17,-115.14,Las Vegas 2024-08-12 02:00:00+00:00
2024-08-12 02:00:00+00:00,31.626,52.0,20.57267,33.353275,0.0,0.0,0.0,0.0,0.0,0.0,35800.0,16.575644,124.3804,0.0,0.0,0.0,San Antonio,29.42,-98.49,San Antonio 2024-08-12 02:00:00+00:00
2024-08-12 02:00:00+00:00,14.632501,93.0,13.51255,12.438774,0.0,0.0,0.0,0.0,0.0,89.0,12200.0,22.782625,275.44025,1.4,1.4,1.0,San Francisco,37.77,-122.42,San Francisco 2024-08-12 02:00:00+00:00
2024-08-12 02:00:00+00:00,36.7565,28.0,15.27787,37.06469,0.0,0.0,0.0,0.0,0.0,16.0,64300.0,9.957108,229.39879,0.5,0.5,1.0,Gilbert,33.35,-111.79,Gilbert 2024-08-12 02:00:00+00:00
2024-08-12 02:00:00+00:00,36.7935,28.0,15.309407,37.23774,0.0,0.0,0.0,0.0,0.0,17.0,64600.0,9.107359,198.43504,0.5,0.5,1.0,Chandler,33.31,-111.84,Chandler 2024-08-12 02:00:00+00:00
2024-08-12 02:00:00+00:00,37.1935,28.0,15.6503105,37.945778,0.0,0.0,0.0,0.0,0.0,1.0,64800.0,7.9036193,210.0685,0.5,0.5,1.0,Mesa,33.42,-111.83,Mesa 2024-08-12 02:00:00+00:00
2024-08-12 02:00:00+00:00,29.7455,78.0,25.496601,35.751106,33.0,0.0,0.0,0.0,0.0,35.0,18300.0,7.24486,116.56499,0.0,0.0,0.0,Hialeah,25.86,-80.3,Hialeah 2024-08-12 02:00:00+00:00
2024-08-12 02:00:00+00:00,23.798,84.0,20.931005,27.877941,11.0,0.0,0.0,0.0,0.0,73.0,17500.0,1.8,143.13002,0.0,0.0,0.0,Greensboro,36.07,-79.79,Greensboro 2024-08-12 02:00:00+00:00
2024-08-12 02:00:00+00:00,38.8825,8.0,-1.3016725,34.9306,0.0,0.0,0.0,0.0,0.0,0.0,90000.0,11.165805,1.8475709,1.1,1.1,1.0,Bakersfield,35.37,-119.02,Bakersfield 2024-08-12 02:00:00+00:00
2024-08-12 02:00:00+00:00,20.887499,84.0,18.082375,22.178104,46.0,0.4,0.4,0.0,0.0,100.0,9600.0,11.384198,55.304783,0.0,0.0,0.0,Kansas City,39.1,-94.58,Kansas City 2024-08-12 02:00:00+00:00
2024-08-12 02:00:00+00:00,29.1,36.0,12.512958,27.518162,0.0,0.0,0.0,0.0,0.0,0.0,52500.0,16.199999,216.86998,1.35,1.35,1.0,Sacramento,38.58,-121.49,Sacramento 2024-08-12 02:00:00+00:00
2024-08-12 02:00:00+00:00,27.3865,58.0,18.39594,28.760044,0.0,0.0,0.0,0.0,0.0,6.0,30000.0,11.753876,220.0302,0.95,1.0,1.0,Los Angeles,34.05,-118.24,Los Angeles 2024-08-12 02:00:00+00:00
2024-08-12 02:00:00+00:00,19.9115,71.0,14.49702,19.761736,0.0,0.0,0.0,0.0,0.0,5.0,21400.0,11.183201,273.6913,1.4,1.4,1.0,Tacoma,47.25,-122.44,Tacoma 2024-08-12 02:00:00+00:00
2024-08-12 02:00:00+00:00,22.741499,80.0,19.111929,25.685875,0.0,0.0,0.0,0.0,0.0,17.0,18800.0,3.319036,49.398785,0.0,0.0,0.0,Richmond,37.54,-77.43,Richmond 2024-08-12 02:00:00+00:00
2024-08-12 02:00:00+00:00,27.25,56.0,17.71019,28.102936,0.0,0.0,0.0,0.0,0.0,3.0,31400.0,13.202726,205.8663,1.0,1.0,1.0,Glendale,34.14,-118.25,Glendale 2024-08-12 02:00:00+00:00
2024-08-12 02:00:00+00:00,26.157,84.0,23.239363,30.830349,72.0,0.0,0.0,0.0,0.0,100.0,17000.0,6.6087217,150.64235,0.0,0.0,0.0,Charlotte,35.23,-80.84,Charlotte 2024-08-12 02:00:00+00:00
2024-08-12 02:00:00+00:00,22.619501,89.0,20.713303,25.920036,89.0,0.0,0.0,0.0,0.0,100.0,14200.0,6.3690495,312.70938,0.6,0.85,1.0,Chula Vista,32.64,-117.08,Chula Vista 2024-08-12 02:00:00+00:00
2024-08-12 02:00:00+00:00,18.4305,75.0,13.918271,17.007689,0.0,0.0,0.0,0.0,0.0,8.0,19500.0,18.472595,326.92932,1.35,1.35,1.0,Fremont,37.55,-121.98,Fremont 2024-08-12 02:00:00+00:00
2024-08-12 02:00:00+00:00,23.4435,91.0,21.889133,27.691214,15.0,0.0,0.0,0.0,0.0,11.0,13600.0,4.2136917,199.9832,0.0,0.0,0.0,Winston-Salem,36.1,-80.26,Winston-Salem 2024-08-12 02:00:00+00:00
2024-08-12 02:00:00+00:00,20.724,69.0,14.832021,20.368273,0.0,0.0,0.0,0.0,0.0,5.0,22500.0,13.450708,344.47583,1.35,1.35,1.0,San Jose,37.34,-121.89,San Jose 2024-08-12 02:00:00+00:00
2024-08-12 02:00:00+00:00,19.0175,72.0,13.854696,19.523146,0.0,0.0,0.0,0.0,0.0,0.0,23800.0,5.0911684,81.86999,0.0,0.0,0.0,Louisville,38.25,-85.76,Louisville 2024-08-12 02:00:00+00:00
2024-08-12 02:00:00+00:00,29.759,70.0,23.700062,34.52218,1.0,0.0,0.0,0.0,0.0,2.0,23100.0,7.8625183,164.05453,0.0,0.0,0.0,New Orleans,29.95,-90.07,New Orleans 2024-08-12 02:00:00+00:00
2024-08-12 02:00:00+00:00,23.515501,64.0,16.31295,24.666456,0.0,0.0,0.0,0.0,0.0,4.0,28300.0,7.10031,30.465475,0.0,0.0,0.0,Memphis,35.15,-90.05,Memphis 2024-08-12 02:00:00+00:00
2024-08-12 02:00:00+00:00,24.539,89.0,22.605255,29.173637,4.0,0.0,0.0,0.0,0.0,100.0,15100.0,4.3349743,94.76356,0.0,0.0,0.0,Durham,35.99,-78.9,Durham 2024-08-12 02:00:00+00:00
2024-08-12 02:00:00+00:00,27.024,45.0,14.079821,27.382353,0.0,0.0,0.0,0.0,0.0,64.0,43100.0,6.6185193,337.6198,0.0,0.0,0.0,Atlanta,33.75,-84.39,Atlanta 2024-08-12 02:00:00+00:00
2024-08-12 02:00:00+00:00,21.498,62.0,13.912323,21.61875,0.0,0.0,0.0,0.0,0.0,1.0,30100.0,7.8625183,285.94547,0.0,0.0,0.0,Philadelphia,39.95,-75.17,Philadelphia 2024-08-12 02:00:00+00:00
2024-08-12 02:00:00+00:00,19.022001,56.0,10.044516,18.188442,0.0,0.0,0.0,0.0,0.0,2.0,33400.0,5.904439,232.43134,0.0,0.0,0.0,Pittsburgh,40.44,-79.99,Pittsburgh 2024-08-12 02:00:00+00:00
2024-08-12 02:00:00+00:00,26.8065,61.0,18.657633,28.563953,0.0,0.0,0.0,0.0,0.0,3.0,28000.0,9.957108,220.60121,0.85,0.95,1.0,Anaheim,33.83,-117.91,Anaheim 2024-08-12 02:00:00+00:00
2024-08-12 02:00:00+00:00,24.302,26.0,3.56907,21.680649,0.0,0.0,0.0,0.0,0.0,73.0,66000.0,7.628263,250.70985,0.25,0.25,0.0,Aurora,39.73,-104.83,Aurora 2024-08-12 02:00:00+00:00
2024-08-12 02:00:00+00:00,22.274,65.0,15.37897,23.563354,0.0,0.0,0.0,0.0,0.0,27.0,28000.0,3.6,143.13002,0.0,0.0,0.0,St. Louis,38.63,-90.2,St. Louis 2024-08-12 02:00:00+00:00
2024-08-12 02:00:00+00:00,22.524,55.0,13.033065,21.8631,0.0,0.0,0.0,0.0,0.0,9.0,35600.0,11.113451,245.09526,0.0,0.0,0.0,Newark,40.73,-74.17,Newark 2024-08-12 02:00:00+00:00
2024-08-12 02:00:00+00:00,22.678,59.0,14.256681,21.678183,0.0,0.0,0.0,0.0,0.0,0.0,31100.0,16.394829,8.841739,1.45,1.45,1.0,Portland,45.52,-122.68,Portland 2024-08-12 02:00:00+00:00
2024-08-12 02:00:00+00:00,30.0535,22.0,6.0122285,28.350502,0.0,0.0,0.0,0.0,0.0,0.0,76200.0,4.802999,192.99461,1.05,1.1,1.0,Spokane,47.66,-117.43,Spokane 2024-08-12 02:00:00+00:00
2024-08-12 02:00:00+00:00,25.713001,70.0,19.830517,27.974682,0.0,0.0,0.0,0.0,0.0,5.0,21900.0,10.383987,213.6901,0.85,0.95,1.0,Santa Ana,33.74,-117.87,Santa Ana 2024-08-12 02:00:00+00:00
2024-08-12 02:00:00+00:00,18.4305,65.0,11.731273,18.17099,0.0,0.0,0.0,0.0,0.0,2.0,27600.0,5.4477882,277.59454,0.0,0.0,0.0,Minneapolis,44.98,-93.27,Minneapolis 2024-08-12 02:00:00+00:00
2024-08-12 02:00:00+00:00,22.772001,53.0,12.696854,22.567028,28.0,0.0,0.0,0.0,0.0,100.0,34100.0,7.208994,267.13766,0.0,0.0,0.0,Cleveland,41.5,-81.69,Cleveland 2024-08-12 02:00:00+00:00
2024-08-12 02:00:00+00:00,31.87,52.0,20.797411,33.359097,28.0,0.0,0.0,0.0,0.0,11.0,36200.0,19.008545,127.30403,0.0,0.0,0.0,Fort Worth,32.75,-97.33,Fort Worth 2024-08-12 02:00:00+00:00
2024-08-12 02:00:00+00:00,25.595499,72.0,20.172937,28.169552,0.0,0.0,0.0,0.0,0.0,15.0,21100.0,9.422101,226.54811,0.85,0.95,1.0,Irvine,33.68,-117.83,Irvine 2024-08-12 02:00:00+00:00
2024-08-12 02:00:00+00:00,16.6,70.0,11.105605,16.111456,0.0,0.0,0.0,0.0,0.0,5.0,24800.0,5.692099,325.30478,0.0,0.0,0.0,Fort Wayne,41.08,-85.14,Fort Wayne 2024-08-12 02:00:00+00:00
2024-08-12 02:00:00+00:00,24.417501,91.0,22.851782,28.859783,26.0,0.0,0.0,0.0,0.0,100.0,13800.0,6.638072,167.4712,0.0,0.0,0.0,Orlando,28.54,-81.38,Orlando 2024-08-12 02:00:00+00:00
2024-08-12 02:00:00+00:00,29.217001,7.0,-10.146237,23.32628,0.0,0.0,0.0,0.0,0.0,6.0,90000.0,18.0036,281.53458,1.05,1.25,1.0,Reno,39.53,-119.81,Reno 2024-08-12 02:00:00+00:00
2024-08-12 02:00:00+00:00,28.7305,76.0,24.079529,33.62865,0.0,0.0,0.0,0.0,0.0,100.0,21500.0,8.557102,157.75093,0.0,0.0,0.0,Houston,29.76,-95.37,Houston 2024-08-12 02:00:00+00:00
2024-08-12 02:00:00+00:00,33.419,14.0,2.2888665,30.247383,0.0,0.0,0.0,0.0,0.0,0.0,90000.0,9.746631,4.23632,0.95,0.95,1.0,Boise,43.62,-116.2,Boise 2024-08-12 02:00:00+00:00
2024-08-12 02:00:00+00:00,37.7065,28.0,16.087408,35.31417,67.0,0.0,0.0,0.0,0.0,0.0,65100.0,30.657122,170.53775,0.8,0.8,1.0,North Las Vegas,36.2,-115.12,North Las Vegas 2024-08-12 02:00:00+00:00
2024-08-12 02:00:00+00:00,12.983,89.0,11.212123,11.736287,39.0,2.0,0.1,1.9,0.0,100.0,24140.0,11.119281,209.0545,0.75,3.0,1.0,Anchorage,61.22,-149.89,Anchorage 2024-08-12 02:00:00+00:00
2024-08-12 02:00:00+00:00,25.6,87.0,23.274103,30.154942,85.0,0.0,0.0,0.0,0.0,100.0,16600.0,7.5685663,267.27374,0.0,0.0,0.0,Jacksonville,30.33,-81.65,Jacksonville 2024-08-12 02:00:00+00:00
2024-08-12 02:00:00+00:00,18.341,60.0,10.439977,17.868715,0.0,0.0,0.0,0.0,0.0,4.0,29800.0,4.2136917,250.0168,0.0,0.0,0.0,Columbus,39.96,-83.0,Columbus 2024-08-12 02:00:00+00:00
2024-08-12 02:00:00+00:00,31.463001,53.0,20.731544,33.127007,16.0,0.0,0.0,0.0,0.0,5.0,34200.0,17.57744,124.992096,0.0,0.0,0.0,Arlington,32.74,-97.11,Arlington 2024-08-12 02:00:00+00:00
2024-08-12 02:00:00+00:00,30.092499,53.0,19.465858,30.995644,7.0,0.0,0.0,0.0,0.0,63.0,24140.0,21.575987,64.2901,5.3,5.95,1.0,Honolulu,21.31,-157.86,Honolulu 2024-08-12 02:00:00+00:00
2024-08-12 02:00:00+00:00,19.595499,55.0,10.3090725,19.533035,0.0,0.0,0.0,0.0,0.0,48.0,33400.0,1.1384199,251.56496,0.0,0.0,0.0,Indianapolis,39.77,-86.16,Indianapolis 2024-08-12 02:00:00+00:00
2024-08-12 02:00:00+00:00,24.191,47.0,12.17008,22.865517,11.0,0.0,0.0,0.0,0.0,94.0,40900.0,13.698934,3.0127327,0.2,0.2,0.0,Colorado Springs,38.83,-104.82,Colorado Springs 2024-08-12 02:00:00+00:00
2024-08-12 02:00:00+00:00,21.3345,65.0,14.487586,22.313244,0.0,0.0,0.0,0.0,0.0,0.0,26500.0,3.4152596,251.56496,0.0,0.0,0.0,Baltimore,39.29,-76.61,Baltimore 2024-08-12 02:00:00+00:00
2024-08-12 02:00:00+00:00,26.7695,90.0,24.99076,33.119297,37.0,0.0,0.0,0.0,0.0,82.0,14600.0,2.6208394,74.054535,0.0,0.0,0.0,Tampa,27.95,-82.46,Tampa 2024-08-12 02:00:00+00:00
2024-08-12 02:00:00+00:00,23.7325,90.0,21.993446,28.013859,40.0,0.0,0.0,0.0,0.0,1.0,14500.0,4.379589,350.53775,0.0,0.0,0.0,Chesapeake,36.77,-76.29,Chesapeake 2024-08-12 02:00:00+00:00
2024-08-12 02:00:00+00:00,17.337,65.0,10.69298,16.075775,49.0,0.0,0.0,0.0,0.0,0.0,27300.0,10.1376915,263.88458,0.0,0.0,0.0,Buffalo,42.89,-78.88,Buffalo 2024-08-12 02:00:00+00:00
2024-08-12 02:00:00+00:00,19.863,53.0,10.003076,18.404596,2.0,0.0,0.0,0.0,0.0,0.0,35500.0,10.105681,274.08554,0.0,0.0,0.0,Toledo,41.65,-83.54,Toledo 2024-08-12 02:00:00+00:00
2024-08-12 02:00:00+00:00,23.896,90.0,22.154821,27.042183,72.0,0.0,0.0,0.0,0.0,100.0,14300.0,12.783802,147.65259,0.0,0.0,0.0,Tulsa,36.15,-95.99,Tulsa 2024-08-12 02:00:00+00:00
2024-08-12 03:00:00+00:00,21.681,66.0,15.053557,22.8863,13.0,0.0,0.0,0.0,0.0,100.0,25100.0,3.319036,102.5288,0.0,0.0,0.0,Omaha,41.26,-95.94,Omaha 2024-08-12 03:00:00+00:00
2024-08-12 03:00:00+00:00,17.8545,63.0,10.713716,17.911667,0.0,0.0,0.0,0.0,0.0,2.0,27200.0,1.1384199,18.435053,0.0,0.0,0.0,Lexington,38.04,-84.5,Lexington 2024-08-12 03:00:00+00:00
2024-08-12 03:00:00+00:00,17.772001,62.0,10.395534,17.046768,0.0,0.0,0.0,0.0,0.0,25.0,29400.0,5.8603754,222.5104,0.0,0.0,0.0,Pittsburgh,40.44,-79.99,Pittsburgh 2024-08-12 03:00:00+00:00
2024-08-12 03:00:00+00:00,24.489,91.0,22.922445,29.382595,6.0,0.0,0.0,0.0,0.0,53.0,14300.0,3.8268526,131.18582,0.0,0.0,0.0,Durham,35.99,-78.9,Durham 2024-08-12 03:00:00+00:00
2024-08-12 03:00:00+00:00,23.648,86.0,21.167107,27.433619,16.0,0.0,0.0,0.0,0.0,39.0,16800.0,4.6800003,67.3801,0.0,0.0,0.0,Greensboro,36.07,-79.79,Greensboro 2024-08-12 03:00:00+00:00
2024-08-12 03:00:00+00:00,21.9305,88.0,19.851704,24.657917,0.0,0.0,0.0,0.0,0.0,50.0,14300.0,7.289445,212.90524,0.1,0.1,0.0,Long Beach,33.77,-118.19,Long Beach 2024-08-12 03:00:00+00:00
2024-08-12 03:00:00+00:00,30.569,16.0,1.897992,27.382357,0.0,0.0,0.0,0.0,0.0,0.0,88900.0,9.387651,57.528828,0.15,0.15,0.0,Boise,43.62,-116.2,Boise 2024-08-12 03:00:00+00:00
2024-08-12 03:00:00+00:00,26.1,40.0,11.448799,24.66039,0.0,0.0,0.0,0.0,0.0,0.0,47600.0,12.904882,202.98874,0.25,0.25,1.0,Sacramento,38.58,-121.49,Sacramento 2024-08-12 03:00:00+00:00
2024-08-12 03:00:00+00:00,32.4565,30.0,12.657118,32.342697,0.0,0.0,0.0,0.0,0.0,13.0,62000.0,6.439876,296.56497,0.0,0.0,0.0,Tucson,32.22,-110.97,Tucson 2024-08-12 03:00:00+00:00
2024-08-12 03:00:00+00:00,24.4455,72.0,19.0688,26.621521,0.0,0.0,0.0,0.0,0.0,1.0,20900.0,8.435069,230.19447,0.1,0.1,0.0,Irvine,33.68,-117.83,Irvine 2024-08-12 03:00:00+00:00
2024-08-12 03:00:00+00:00,24.187,44.0,11.167489,21.742237,0.0,0.0,0.0,0.0,0.0,13.0,43400.0,19.211996,282.99463,0.0,0.0,0.0,Jersey City,40.71,-74.07,Jersey City 2024-08-12 03:00:00+00:00
2024-08-12 03:00:00+00:00,20.234499,69.0,14.364122,21.18241,0.0,0.0,0.0,0.0,0.0,2.0,24300.0,3.319036,310.60123,0.0,0.0,0.0,Baltimore,39.29,-76.61,Baltimore 2024-08-12 03:00:00+00:00
2024-08-12 03:00:00+00:00,17.917501,79.0,14.223126,19.016268,0.0,0.0,0.0,0.0,0.0,1.0,19200.0,1.9386592,111.801476,0.0,0.0,0.0,Louisville,38.25,-85.76,Louisville 2024-08-12 03:00:00+00:00
2024-08-12 03:00:00+00:00,20.874,63.0,13.569286,20.123575,0.0,0.0,0.0,0.0,0.0,4.0,29400.0,13.004921,274.76355,0.0,0.0,0.0,Newark,40.73,-74.17,Newark 2024-08-12 03:00:00+00:00
2024-08-12 03:00:00+00:00,20.9155,74.0,16.107233,21.790983,32.0,0.0,0.0,0.0,0.0,100.0,20500.0,8.427383,109.98319,0.0,0.0,0.0,Lincoln,40.81,-96.68,Lincoln 2024-08-12 03:00:00+00:00
2024-08-12 03:00:00+00:00,36.836998,29.0,15.894573,36.572636,0.0,0.0,0.0,0.0,0.0,0.0,62900.0,15.542662,256.60748,0.0,0.0,0.0,Phoenix,33.45,-112.07,Phoenix 2024-08-12 03:00:00+00:00
2024-08-12 03:00:00+00:00,27.6035,26.0,6.3756614,25.749985,0.0,0.0,0.0,0.0,0.0,0.0,69100.0,6.4096174,141.84273,0.25,0.25,1.0,Spokane,47.66,-117.43,Spokane 2024-08-12 03:00:00+00:00
2024-08-12 03:00:00+00:00,30.6415,53.0,19.972933,32.356083,6.0,0.0,0.0,0.0,0.0,4.0,34500.0,14.57889,147.09476,0.0,0.0,0.0,Plano,33.02,-96.7,Plano 2024-08-12 03:00:00+00:00
2024-08-12 03:00:00+00:00,21.624,68.0,15.464252,23.020432,0.0,0.0,0.0,0.0,0.0,100.0,25800.0,3.096837,125.537766,0.0,0.0,0.0,St. Louis,38.63,-90.2,St. Louis 2024-08-12 03:00:00+00:00
2024-08-12 03:00:00+00:00,34.6195,16.0,5.139055,31.554108,0.0,0.0,0.0,0.0,0.0,1.0,88300.0,12.819235,308.15726,0.2,0.2,0.0,Fresno,36.73,-119.79,Fresno 2024-08-12 03:00:00+00:00
2024-08-12 03:00:00+00:00,22.791,44.0,9.903883,20.634558,13.0,0.0,0.0,0.0,0.0,80.0,44000.0,14.689588,323.97253,0.0,0.0,0.0,Colorado Springs,38.83,-104.82,Colorado Springs 2024-08-12 03:00:00+00:00
2024-08-12 03:00:00+00:00,30.747,25.0,8.462463,29.14611,0.0,0.0,0.0,0.0,0.0,48.0,70200.0,8.161764,318.57642,0.0,0.0,0.0,Albuquerque,35.08,-106.65,Albuquerque 2024-08-12 03:00:00+00:00
2024-08-12 03:00:00+00:00,17.937,65.0,11.262715,16.936169,0.0,0.0,0.0,0.0,0.0,63.0,28100.0,9.531505,259.1145,0.0,0.0,0.0,Detroit,42.33,-83.05,Detroit 2024-08-12 03:00:00+00:00
2024-08-12 03:00:00+00:00,27.3935,85.0,24.646965,33.56519,48.0,0.0,0.0,0.0,0.0,0.0,15900.0,2.3051248,38.65983,0.0,0.0,0.0,Miami,25.77,-80.19,Miami 2024-08-12 03:00:00+00:00
2024-08-12 03:00:00+00:00,30.928,60.0,22.260311,33.2655,0.0,0.0,0.0,0.0,0.0,43.0,28600.0,18.668005,129.5226,0.0,0.0,0.0,Laredo,27.53,-99.49,Laredo 2024-08-12 03:00:00+00:00
2024-08-12 03:00:00+00:00,18.263,60.0,10.366619,17.48515,0.0,0.0,0.0,0.0,0.0,0.0,29700.0,6.162207,263.29025,0.0,0.0,0.0,Toledo,41.65,-83.54,Toledo 2024-08-12 03:00:00+00:00
2024-08-12 03:00:00+00:00,12.733,89.0,10.965567,11.803865,13.0,1.4,0.0,1.4,0.0,100.0,24140.0,8.427383,199.9832,1.2,2.1,1.0,Anchorage,61.22,-149.89,Anchorage 2024-08-12 03:00:00+00:00
2024-08-12 03:00:00+00:00,28.2305,78.0,24.0283,33.04883,0.0,0.0,0.0,0.0,0.0,0.0,20500.0,8.891344,158.62932,0.0,0.0,0.0,Houston,29.76,-95.37,Houston 2024-08-12 03:00:00+00:00
2024-08-12 03:00:00+00:00,24.317501,89.0,22.386946,28.293526,6.0,0.0,0.0,0.0,0.0,63.0,14500.0,7.9932976,172.23492,0.0,0.0,0.0,Orlando,28.54,-81.38,Orlando 2024-08-12 03:00:00+00:00
2024-08-12 03:00:00+00:00,17.1695,75.0,12.700316,17.102835,0.0,0.0,0.0,0.0,0.0,0.0,21800.0,6.28713,346.75946,0.0,0.0,0.0,Saint Paul,44.95,-93.1,Saint Paul 2024-08-12 03:00:00+00:00
2024-08-12 03:00:00+00:00,27.2305,84.0,24.289675,32.970463,48.0,0.0,0.0,0.0,0.0,78.0,16500.0,3.7064266,240.94548,0.0,0.0,0.0,St. Petersburg,27.77,-82.64,St. Petersburg 2024-08-12 03:00:00+00:00
2024-08-12 03:00:00+00:00,15.5,69.0,9.836592,14.78491,0.0,0.0,0.0,0.0,0.0,5.0,25200.0,4.6938257,302.47116,0.0,0.0,0.0,Fort Wayne,41.08,-85.14,Fort Wayne 2024-08-12 03:00:00+00:00
2024-08-12 03:00:00+00:00,20.727999,61.0,12.936815,19.607994,0.0,0.0,0.0,0.0,0.0,1.0,30300.0,14.044615,358.53122,0.45,0.45,1.0,Portland,45.52,-122.68,Portland 2024-08-12 03:00:00+00:00
2024-08-12 03:00:00+00:00,36.078503,32.0,16.787443,34.614746,77.0,0.0,0.0,0.0,0.0,50.0,58500.0,26.282465,179.2152,0.05,0.05,0.0,Henderson,36.04,-115.05,Henderson 2024-08-12 03:00:00+00:00
2024-08-12 03:00:00+00:00,37.330498,26.0,14.613408,34.583652,100.0,0.0,0.0,0.0,0.0,49.0,66400.0,29.175552,164.24876,0.05,0.05,0.0,Las Vegas,36.17,-115.14,Las Vegas 2024-08-12 03:00:00+00:00
2024-08-12 03:00:00+00:00,31.925999,50.0,20.212927,33.835556,0.0,0.0,0.0,0.0,0.0,74.0,37000.0,14.05845,129.80553,0.0,0.0,0.0,San Antonio,29.42,-98.49,San Antonio 2024-08-12 03:00:00+00:00
2024-08-12 03:00:00+00:00,19.698,72.0,14.508614,20.121778,0.0,0.0,0.0,0.0,0.0,0.0,23800.0,7.2805495,261.46933,0.0,0.0,0.0,Philadelphia,39.95,-75.17,Philadelphia 2024-08-12 03:00:00+00:00
2024-08-12 03:00:00+00:00,25.624,48.0,13.800557,25.919817,0.0,0.0,0.0,0.0,0.0,32.0,40700.0,6.3690495,317.29062,0.0,0.0,0.0,Atlanta,33.75,-84.39,Atlanta 2024-08-12 03:00:00+00:00
2024-08-12 03:00:00+00:00,22.4155,74.0,17.552937,23.767126,0.0,0.0,0.0,0.0,0.0,1.0,22000.0,9.339208,62.447273,0.0,0.0,0.0,Memphis,35.15,-90.05,Memphis 2024-08-12 03:00:00+00:00
2024-08-12 03:00:00+00:00,27.1935,32.0,9.071185,25.371439,0.0,0.0,0.0,0.0,0.0,0.0,60400.0,10.799999,270.0,0.25,0.25,1.0,Stockton,37.96,-121.29,Stockton 2024-08-12 03:00:00+00:00
2024-08-12 03:00:00+00:00,21.6045,59.0,13.250018,22.319818,0.0,0.0,0.0,0.0,0.0,0.0,30600.0,2.1897945,9.462248,0.0,0.0,0.0,Nashville,36.16,-86.78,Nashville 2024-08-12 03:00:00+00:00
2024-08-12 03:00:00+00:00,22.967001,78.0,18.925076,25.57687,84.0,0.0,0.0,0.0,0.0,100.0,17800.0,5.00128,239.74365,0.05,0.1,0.0,San Diego,32.72,-117.16,San Diego 2024-08-12 03:00:00+00:00
2024-08-12 03:00:00+00:00,21.9195,92.0,20.559973,24.914806,84.0,0.0,0.0,0.0,0.0,100.0,12600.0,7.92,270.0,0.05,0.05,0.0,Chula Vista,32.64,-117.08,Chula Vista 2024-08-12 03:00:00+00:00
2024-08-12 03:00:00+00:00,17.2995,65.0,10.657367,16.821608,0.0,0.0,0.0,0.0,0.0,0.0,26000.0,4.6938252,274.39862,0.0,0.0,0.0,Cincinnati,39.1,-84.51,Cincinnati 2024-08-12 03:00:00+00:00
2024-08-12 03:00:00+00:00,24.984499,80.0,21.293833,27.4283,100.0,0.0,0.0,0.0,0.0,99.0,19000.0,14.336861,151.50446,0.0,0.0,0.0,Oklahoma City,35.47,-97.52,Oklahoma City 2024-08-12 03:00:00+00:00
2024-08-12 03:00:00+00:00,22.0415,82.0,18.82559,24.53145,0.0,0.0,0.0,0.0,0.0,0.0,17600.0,5.506941,11.3098955,0.0,0.0,0.0,Richmond,37.54,-77.43,Richmond 2024-08-12 03:00:00+00:00
2024-08-12 03:00:00+00:00,34.8935,31.0,15.264814,34.93702,0.0,0.0,0.0,0.0,0.0,9.0,59000.0,11.753876,220.0302,0.0,0.0,0.0,Mesa,33.42,-111.83,Mesa 2024-08-12 03:00:00+00:00
2024-08-12 03:00:00+00:00,33.8565,41.0,18.767454,34.559208,19.0,0.0,0.0,0.0,0.0,23.0,41300.0,17.477621,147.61934,0.0,0.0,0.0,Irving,32.81,-96.95,Irving 2024-08-12 03:00:00+00:00
2024-08-12 03:00:00+00:00,23.782999,98.0,23.447645,29.064465,35.0,0.0,0.0,0.0,0.0,68.0,12200.0,3.319036,167.4712,0.0,0.0,0.0,Raleigh,35.78,-78.64,Raleigh 2024-08-12 03:00:00+00:00
2024-08-12 03:00:00+00:00,20.0875,88.0,18.037409,21.341022,68.0,1.4,1.4,0.0,0.0,100.0,15300.0,11.503113,69.86362,0.0,0.0,0.0,Kansas City,39.1,-94.58,Kansas City 2024-08-12 03:00:00+00:00
2024-08-12 03:00:00+00:00,30.0455,73.0,24.67426,35.859848,48.0,0.0,0.0,0.0,0.0,5.0,21200.0,4.8433046,318.01288,0.0,0.0,0.0,Hialeah,25.86,-80.3,Hialeah 2024-08-12 03:00:00+00:00
2024-08-12 03:00:00+00:00,18.521502,64.0,11.582794,17.947996,0.0,0.0,0.0,0.0,0.0,0.0,27100.0,7.2805495,261.46933,0.0,0.0,0.0,Milwaukee,43.04,-87.91,Milwaukee 2024-08-12 03:00:00+00:00
2024-08-12 03:00:00+00:00,34.3935,31.0,14.832891,34.42622,0.0,0.0,0.0,0.0,0.0,4.0,59600.0,10.703569,222.27362,0.0,0.0,0.0,Chandler,33.31,-111.84,Chandler 2024-08-12 03:00:00+00:00
2024-08-12 03:00:00+00:00,31.945,27.0,10.623837,30.394169,0.0,0.0,0.0,0.0,0.0,3.0,66200.0,11.923557,241.11351,0.0,0.0,0.0,El Paso,31.76,-106.49,El Paso 2024-08-12 03:00:00+00:00
2024-08-12 03:00:00+00:00,14.509001,92.0,13.224274,14.371996,0.0,0.0,0.0,0.0,0.0,100.0,12900.0,7.9932976,262.23492,0.3,0.3,1.0,Oakland,37.8,-122.27,Oakland 2024-08-12 03:00:00+00:00
2024-08-12 03:00:00+00:00,35.682503,8.0,-3.6582675,32.08367,0.0,0.0,0.0,0.0,0.0,0.0,90000.0,6.638072,347.4712,0.15,0.15,0.0,Bakersfield,35.37,-119.02,Bakersfield 2024-08-12 03:00:00+00:00
2024-08-12 03:00:00+00:00,16.4805,82.0,13.397317,15.078768,0.0,0.0,0.0,0.0,0.0,27.0,16600.0,17.072504,335.05612,0.25,0.3,1.0,Fremont,37.55,-121.98,Fremont 2024-08-12 03:00:00+00:00
2024-08-12 03:00:00+00:00,30.4,75.0,25.469091,34.11452,3.0,0.0,0.0,0.0,0.0,2.0,20100.0,22.81957,96.340096,0.0,0.0,0.0,Corpus Christi,27.8,-97.4,Corpus Christi 2024-08-12 03:00:00+00:00
2024-08-12 03:00:00+00:00,36.080498,27.0,14.1388,35.60949,0.0,0.0,0.0,0.0,0.0,16.0,66900.0,12.387348,215.53777,0.0,0.0,0.0,Scottsdale,33.49,-111.92,Scottsdale 2024-08-12 03:00:00+00:00
2024-08-12 03:00:00+00:00,32.4475,46.0,19.343922,34.328053,10.0,0.0,0.0,0.0,0.0,50.0,40800.0,11.298495,149.34941,0.0,0.0,0.0,Dallas,32.78,-96.8,Dallas 2024-08-12 03:00:00+00:00
2024-08-12 03:00:00+00:00,28.087,67.0,21.384367,31.58532,6.0,0.0,0.0,0.0,0.0,1.0,26500.0,7.4128532,150.9455,0.0,0.0,0.0,Garland,32.91,-96.64,Garland 2024-08-12 03:00:00+00:00
2024-08-12 03:00:00+00:00,22.219501,85.0,19.576544,24.693808,58.0,0.0,0.0,0.0,0.0,23.0,15900.0,8.0899935,122.27562,0.0,0.0,0.0,Wichita,37.69,-97.34,Wichita 2024-08-12 03:00:00+00:00
2024-08-12 03:00:00+00:00,21.122002,59.0,12.797478,20.869661,42.0,0.0,0.0,0.0,0.0,100.0,29600.0,7.771331,283.39252,0.0,0.0,0.0,Cleveland,41.5,-81.69,Cleveland 2024-08-12 03:00:00+00:00
2024-08-12 03:00:00+00:00,28.759,75.0,23.886574,34.135807,0.0,0.0,0.0,0.0,0.0,0.0,20400.0,4.452954,165.96373,0.0,0.0,0.0,New Orleans,29.95,-90.07,New Orleans 2024-08-12 03:00:00+00:00
2024-08-12 03:00:00+00:00,25.0065,73.0,19.829771,27.60315,0.0,0.0,0.0,0.0,0.0,1.0,20700.0,8.0899935,237.72438,0.1,0.1,0.0,Anaheim,33.83,-117.91,Anaheim 2024-08-12 03:00:00+00:00
2024-08-12 03:00:00+00:00,31.363,57.0,21.82548,33.70057,19.0,0.0,0.0,0.0,0.0,35.0,31300.0,16.992609,143.61555,0.0,0.0,0.0,Arlington,32.74,-97.11,Arlington 2024-08-12 03:00:00+00:00
2024-08-12 03:00:00+00:00,17.9955,59.0,9.863827,17.38498,0.0,0.0,0.0,0.0,0.0,0.0,30200.0,4.0249224,243.43501,0.0,0.0,0.0,Indianapolis,39.77,-86.16,Indianapolis 2024-08-12 03:00:00+00:00
2024-08-12 03:00:00+00:00,20.854,65.0,14.031632,21.52591,0.0,0.0,0.0,0.0,0.0,93.0,27600.0,4.379589,279.46225,0.0,0.0,0.0,Washington,38.91,-77.04,Washington 2024-08-12 03:00:00+00:00
2024-08-12 03:00:00+00:00,17.741,60.0,9.875661,17.172762,0.0,0.0,0.0,0.0,0.0,4.0,30000.0,3.7585104,286.6993,0.0,0.0,0.0,Columbus,39.96,-83.0,Columbus 2024-08-12 03:00:00+00:00
2024-08-12 03:00:00+00:00,27.117,9.0,-8.50111,21.088392,0.0,0.0,0.0,0.0,0.0,0.0,90000.0,19.881649,301.6754,0.2,0.25,0.0,Reno,39.53,-119.81,Reno 2024-08-12 03:00:00+00:00
2024-08-12 03:00:00+00:00,28.9585,43.0,15.123428,29.535164,0.0,0.0,0.0,0.0,0.0,3.0,43200.0,7.771331,283.39252,0.1,0.1,0.0,Riverside,33.98,-117.38,Riverside 2024-08-12 03:00:00+00:00
2024-08-12 03:00:00+00:00,16.9805,74.0,12.313259,16.737715,0.0,0.0,0.0,0.0,0.0,0.0,22400.0,6.6185193,22.380184,0.0,0.0,0.0,Minneapolis,44.98,-93.27,Minneapolis 2024-08-12 03:00:00+00:00
2024-08-12 03:00:00+00:00,24.613,75.0,19.886797,27.147398,0.0,0.0,0.0,0.0,0.0,1.0,19800.0,8.714677,218.2902,0.1,0.1,0.0,Santa Ana,33.74,-117.87,Santa Ana 2024-08-12 03:00:00+00:00
2024-08-12 03:00:00+00:00,23.2325,83.0,20.18372,26.106344,58.0,0.0,0.0,0.0,0.0,4.0,17600.0,7.42159,75.96373,0.0,0.0,0.0,Chesapeake,36.77,-76.29,Chesapeake 2024-08-12 03:00:00+00:00
2024-08-12 03:00:00+00:00,25.7,87.0,23.37238,30.783154,87.0,0.0,0.0,0.0,0.0,96.0,16700.0,4.3498964,65.55606,0.0,0.0,0.0,Jacksonville,30.33,-81.65,Jacksonville 2024-08-12 03:00:00+00:00
2024-08-12 03:00:00+00:00,23.5935,89.0,21.673347,27.184813,23.0,0.0,0.0,0.0,0.0,41.0,14600.0,7.8954163,24.227736,0.0,0.0,0.0,Winston-Salem,36.1,-80.26,Winston-Salem 2024-08-12 03:00:00+00:00
2024-08-12 03:00:00+00:00,17.2895,86.0,14.924971,18.066383,0.0,0.0,0.0,0.0,0.0,0.0,15700.0,5.937272,194.03627,0.45,0.45,1.0,Seattle,47.61,-122.33,Seattle 2024-08-12 03:00:00+00:00
2024-08-12 03:00:00+00:00,25.507,88.0,23.371931,30.918396,100.0,0.0,0.0,0.0,0.0,67.0,15300.0,2.0991426,120.96369,0.0,0.0,0.0,Charlotte,35.23,-80.84,Charlotte 2024-08-12 03:00:00+00:00
2024-08-12 03:00:00+00:00,23.85,66.0,17.114891,25.332863,0.0,0.0,0.0,0.0,0.0,0.0,24500.0,7.127636,224.9999,0.1,0.1,0.0,Glendale,34.14,-118.25,Glendale 2024-08-12 03:00:00+00:00
2024-08-12 03:00:00+00:00,31.25,27.0,10.032319,28.851246,0.0,0.0,0.0,0.0,0.0,0.0,66300.0,16.563911,178.75467,0.0,0.0,0.0,Lubbock,33.58,-101.88,Lubbock 2024-08-12 03:00:00+00:00
2024-08-12 03:00:00+00:00,23.682499,29.0,4.5953116,19.45347,0.0,0.0,0.0,0.0,0.0,78.0,63500.0,20.056877,291.03757,0.0,0.0,0.0,Denver,39.74,-104.99,Denver 2024-08-12 03:00:00+00:00
2024-08-12 03:00:00+00:00,19.174002,73.0,14.218022,18.476141,0.0,0.0,0.0,0.0,0.0,0.0,21800.0,14.241629,343.8556,0.25,0.3,1.0,San Jose,37.34,-121.89,San Jose 2024-08-12 03:00:00+00:00
2024-08-12 03:00:00+00:00,23.3915,76.0,18.919973,25.811037,58.0,0.0,0.0,0.0,0.0,15.0,21600.0,6.28713,66.37061,0.0,0.0,0.0,Norfolk,36.85,-76.29,Norfolk 2024-08-12 03:00:00+00:00
2024-08-12 03:00:00+00:00,13.9825,91.0,12.5362425,11.786058,0.0,0.0,0.0,0.0,0.0,100.0,200.0,20.523157,285.25516,0.25,0.3,1.0,San Francisco,37.77,-122.42,San Francisco 2024-08-12 03:00:00+00:00
2024-08-12 03:00:00+00:00,35.3565,29.0,14.626845,35.00242,0.0,0.0,0.0,0.0,0.0,0.0,62700.0,12.819235,218.15727,0.0,0.0,0.0,Gilbert,33.35,-111.79,Gilbert 2024-08-12 03:00:00+00:00
2024-08-12 03:00:00+00:00,24.213501,41.0,10.130392,22.104933,0.0,0.0,0.0,0.0,0.0,17.0,48000.0,14.799459,274.18484,0.0,0.0,0.0,New York,40.71,-74.01,New York 2024-08-12 03:00:00+00:00
2024-08-12 03:00:00+00:00,37.7565,25.0,14.365039,35.453266,100.0,0.0,0.0,0.0,0.0,49.0,69600.0,25.501621,161.0534,0.05,0.05,0.0,North Las Vegas,36.2,-115.12,North Las Vegas 2024-08-12 03:00:00+00:00
2024-08-12 03:00:00+00:00,23.286499,69.0,17.280785,24.302233,0.0,0.0,0.0,0.0,0.0,2.0,22900.0,10.823973,273.814,0.1,0.1,0.0,Los Angeles,34.05,-118.24,Los Angeles 2024-08-12 03:00:00+00:00
2024-08-12 03:00:00+00:00,18.761501,69.0,12.955906,18.380394,0.0,0.0,0.0,0.0,0.0,1.0,23800.0,9.028754,265.42615,0.45,0.45,1.0,Tacoma,47.25,-122.44,Tacoma 2024-08-12 03:00:00+00:00
2024-08-12 03:00:00+00:00,22.380499,52.0,12.044771,21.24864,0.0,0.0,0.0,0.0,0.0,40.0,35900.0,12.10157,210.37904,0.0,0.0,0.0,Boston,42.36,-71.06,Boston 2024-08-12 03:00:00+00:00
2024-08-12 03:00:00+00:00,26.619501,92.0,25.211443,32.69572,48.0,0.0,0.0,0.0,0.0,48.0,13200.0,5.495161,121.60746,0.0,0.0,0.0,Tampa,27.95,-82.46,Tampa 2024-08-12 03:00:00+00:00
2024-08-12 03:00:00+00:00,22.452,32.0,4.939443,18.181753,0.0,0.0,0.0,0.0,0.0,9.0,59000.0,20.833395,288.12195,0.0,0.0,0.0,Aurora,39.73,-104.83,Aurora 2024-08-12 03:00:00+00:00
2024-08-12 03:00:00+00:00,19.68,54.0,10.1128845,19.168768,0.0,0.0,0.0,0.0,0.0,0.0,34600.0,3.8268526,138.81418,0.0,0.0,0.0,Chicago,41.88,-87.63,Chicago 2024-08-12 03:00:00+00:00
2024-08-12 03:00:00+00:00,17.1,73.0,12.221383,17.264824,0.0,0.0,0.0,0.0,0.0,0.0,21900.0,3.6179552,275.7105,0.0,0.0,0.0,Madison,43.07,-89.4,Madison 2024-08-12 03:00:00+00:00
2024-08-12 03:00:00+00:00,31.720001,57.0,22.158073,33.89554,39.0,0.0,0.0,0.0,0.0,1.0,32600.0,19.373219,131.98714,0.0,0.0,0.0,Fort Worth,32.75,-97.33,Fort Worth 2024-08-12 03:00:00+00:00
2024-08-12 03:00:00+00:00,29.1925,58.0,20.08348,30.085419,3.0,0.0,0.0,0.0,0.0,72.0,24140.0,20.608229,62.98742,3.8,3.85,1.0,Honolulu,21.31,-157.86,Honolulu 2024-08-12 03:00:00+00:00
2024-08-12 03:00:00+00:00,30.898,59.0,21.956364,34.33506,0.0,0.0,0.0,0.0,0.0,0.0,29700.0,9.957108,139.39879,0.0,0.0,0.0,Austin,30.27,-97.74,Austin 2024-08-12 03:00:00+00:00
2024-08-12 03:00:00+00:00,28.432499,60.0,19.91954,31.8166,0.0,0.0,0.0,0.0,0.0,0.0,31400.0,2.968636,345.9637,0.0,0.0,0.0,Baton Rouge,30.45,-91.15,Baton Rouge 2024-08-12 03:00:00+00:00
2024-08-12 03:00:00+00:00,23.146,91.0,21.595089,25.829315,94.0,0.0,0.0,0.0,0.0,100.0,13300.0,13.830749,141.34016,0.0,0.0,0.0,Tulsa,36.15,-95.99,Tulsa 2024-08-12 03:00:00+00:00
2024-08-12 03:00:00+00:00,22.0,81.0,18.588871,25.033768,61.0,0.0,0.0,0.0,0.0,48.0,18000.0,1.0182338,44.999897,0.0,0.0,0.0,Virginia Beach,36.85,-75.98,Virginia Beach 2024-08-12 03:00:00+00:00
2024-08-12 03:00:00+00:00,16.737,67.0,10.577422,16.078497,35.0,0.0,0.0,0.0,0.0,0.0,25700.0,5.771239,273.57626,0.0,0.0,0.0,Buffalo,42.89,-78.88,Buffalo 2024-08-12 03:00:00+00:00
2024-08-12 04:00:00+00:00,16.640999,68.0,10.708413,16.032888,0.0,0.0,0.0,0.0,0.0,0.0,24400.0,5.6920996,251.56496,0.0,0.0,0.0,Columbus,39.96,-83.0,Columbus 2024-08-12 04:00:00+00:00
2024-08-12 04:00:00+00:00,20.724,65.0,13.908265,20.651873,0.0,0.0,0.0,0.0,0.0,0.0,27600.0,9.178235,311.82007,0.0,0.0,0.0,Newark,40.73,-74.17,Newark 2024-08-12 04:00:00+00:00
2024-08-12 04:00:00+00:00,16.6695,69.0,10.955304,16.333282,0.0,0.0,0.0,0.0,0.0,0.0,25300.0,4.3349743,265.23645,0.0,0.0,0.0,Saint Paul,44.95,-93.1,Saint Paul 2024-08-12 04:00:00+00:00
2024-08-12 04:00:00+00:00,30.776,64.0,23.181328,34.011448,0.0,0.0,0.0,0.0,0.0,3.0,27100.0,16.179987,147.72438,0.0,0.0,0.0,San Antonio,29.42,-98.49,San Antonio 2024-08-12 04:00:00+00:00
2024-08-12 04:00:00+00:00,13.809,95.0,13.021454,13.765387,0.0,0.0,0.0,0.0,0.0,100.0,12200.0,6.87779,276.0089,0.0,0.0,0.0,Oakland,37.8,-122.27,Oakland 2024-08-12 04:00:00+00:00
2024-08-12 04:00:00+00:00,22.402,32.0,4.895823,18.003826,1.0,0.0,0.0,0.0,0.0,100.0,59800.0,21.647945,266.186,0.0,0.0,0.0,Aurora,39.73,-104.83,Aurora 2024-08-12 04:00:00+00:00
2024-08-12 04:00:00+00:00,16.786999,67.0,10.625076,16.091711,0.0,0.0,0.0,0.0,0.0,0.0,26900.0,6.12,241.92761,0.0,0.0,0.0,Detroit,42.33,-83.05,Detroit 2024-08-12 04:00:00+00:00
2024-08-12 04:00:00+00:00,16.7395,79.0,13.07817,17.338879,0.0,0.0,0.0,0.0,0.0,1.0,18500.0,2.5959969,146.3099,0.0,0.0,0.0,Seattle,47.61,-122.33,Seattle 2024-08-12 04:00:00+00:00
2024-08-12 04:00:00+00:00,24.0,65.0,17.01615,25.921886,0.0,0.0,0.0,0.0,0.0,0.0,24900.0,3.8268526,221.18582,0.0,0.0,0.0,Glendale,34.14,-118.25,Glendale 2024-08-12 04:00:00+00:00
2024-08-12 04:00:00+00:00,19.884499,74.0,15.113383,21.18777,0.0,0.0,0.0,0.0,0.0,87.0,21500.0,2.8116899,320.1945,0.0,0.0,0.0,Baltimore,39.29,-76.61,Baltimore 2024-08-12 04:00:00+00:00
2024-08-12 04:00:00+00:00,22.548,89.0,20.642822,25.937603,13.0,0.0,0.0,0.0,0.0,16.0,14900.0,5.506941,11.3098955,0.0,0.0,0.0,Greensboro,36.07,-79.79,Greensboro 2024-08-12 04:00:00+00:00
2024-08-12 04:00:00+00:00,21.55,55.0,12.127319,20.09367,0.0,0.0,0.0,0.0,0.0,3.0,32000.0,14.512064,203.38524,0.0,0.0,0.0,Sacramento,38.58,-121.49,Sacramento 2024-08-12 04:00:00+00:00
2024-08-12 04:00:00+00:00,26.880499,86.0,24.339384,32.877968,44.0,0.0,0.0,0.0,0.0,60.0,15300.0,2.16,270.0,0.0,0.0,0.0,St. Petersburg,27.77,-82.64,St. Petersburg 2024-08-12 04:00:00+00:00
2024-08-12 04:00:00+00:00,26.5695,93.0,25.343628,32.747543,44.0,0.0,0.0,0.0,0.0,11.0,12800.0,5.3999996,90.0,0.0,0.0,0.0,Tampa,27.95,-82.46,Tampa 2024-08-12 04:00:00+00:00
2024-08-12 04:00:00+00:00,34.7805,36.0,17.515736,35.884293,4.0,0.0,0.0,0.0,0.0,2.0,52700.0,10.829959,254.57777,0.0,0.0,0.0,Scottsdale,33.49,-111.92,Scottsdale 2024-08-12 04:00:00+00:00
2024-08-12 04:00:00+00:00,23.6325,26.0,2.9992735,18.182896,3.0,0.0,0.0,0.0,0.0,100.0,68400.0,26.282465,269.21518,0.0,0.0,0.0,Denver,39.74,-104.99,Denver 2024-08-12 04:00:00+00:00
2024-08-12 04:00:00+00:00,27.293499,82.0,23.949697,32.73119,58.0,0.0,0.0,0.0,0.0,4.0,17300.0,4.32,90.0,0.0,0.0,0.0,Miami,25.77,-80.19,Miami 2024-08-12 04:00:00+00:00
2024-08-12 04:00:00+00:00,23.889,93.0,22.687328,28.872116,6.0,0.0,0.0,0.0,0.0,9.0,13300.0,2.2768397,71.564964,0.0,0.0,0.0,Durham,35.99,-78.9,Durham 2024-08-12 04:00:00+00:00
2024-08-12 04:00:00+00:00,17.4675,85.0,14.917934,18.227434,0.0,0.0,0.0,0.0,0.0,4.0,15600.0,6.0347,287.3541,0.0,0.0,0.0,Louisville,38.25,-85.76,Louisville 2024-08-12 04:00:00+00:00
2024-08-12 04:00:00+00:00,29.095499,75.0,24.211107,34.890392,58.0,0.0,0.0,0.0,0.0,0.0,19500.0,2.968636,14.036275,0.0,0.0,0.0,Hialeah,25.86,-80.3,Hialeah 2024-08-12 04:00:00+00:00
2024-08-12 04:00:00+00:00,36.1305,29.0,15.289736,35.733444,95.0,0.0,0.0,0.0,0.0,19.0,63100.0,14.830076,185.5721,0.0,0.0,0.0,Las Vegas,36.17,-115.14,Las Vegas 2024-08-12 04:00:00+00:00
2024-08-12 04:00:00+00:00,19.0875,94.0,18.098726,20.873007,60.0,8.6,8.6,0.0,0.0,99.0,13000.0,8.049845,63.435013,0.0,0.0,0.0,Kansas City,39.1,-94.58,Kansas City 2024-08-12 04:00:00+00:00
2024-08-12 04:00:00+00:00,23.436499,66.0,16.721981,25.050108,0.0,0.0,0.0,0.0,0.0,1.0,24400.0,5.0911684,278.13,0.0,0.0,0.0,Los Angeles,34.05,-118.24,Los Angeles 2024-08-12 04:00:00+00:00
2024-08-12 04:00:00+00:00,17.5615,70.0,12.02677,17.298405,0.0,0.0,0.0,0.0,0.0,2.0,22800.0,6.12,270.0,0.0,0.0,0.0,Tacoma,47.25,-122.44,Tacoma 2024-08-12 04:00:00+00:00
2024-08-12 04:00:00+00:00,21.824001,63.0,14.467337,22.768013,0.0,0.0,0.0,0.0,0.0,21.0,29200.0,3.6,90.0,0.0,0.0,0.0,St. Louis,38.63,-90.2,St. Louis 2024-08-12 04:00:00+00:00
2024-08-12 04:00:00+00:00,16.8995,71.0,11.607103,17.024696,0.0,0.0,0.0,0.0,0.0,0.0,22300.0,2.5455842,261.87,0.0,0.0,0.0,Cincinnati,39.1,-84.51,Cincinnati 2024-08-12 04:00:00+00:00
2024-08-12 04:00:00+00:00,16.587,69.0,10.876395,16.05957,25.0,0.0,0.0,0.0,0.0,0.0,24200.0,5.4833565,246.80138,0.0,0.0,0.0,Buffalo,42.89,-78.88,Buffalo 2024-08-12 04:00:00+00:00
2024-08-12 04:00:00+00:00,22.996,89.0,21.084414,25.598244,95.0,0.0,0.0,0.0,0.0,100.0,14400.0,12.496718,138.50363,0.0,0.0,0.0,Tulsa,36.15,-95.99,Tulsa 2024-08-12 04:00:00+00:00
2024-08-12 04:00:00+00:00,21.390999,49.0,10.237658,20.359379,22.0,0.0,0.0,0.0,0.0,100.0,38400.0,7.6367526,8.130019,0.0,0.0,0.0,Colorado Springs,38.83,-104.82,Colorado Springs 2024-08-12 04:00:00+00:00
2024-08-12 04:00:00+00:00,21.5195,89.0,19.628998,24.384989,56.0,0.0,0.0,0.0,0.0,100.0,13800.0,5.5887027,284.93146,0.0,0.0,0.0,Chula Vista,32.64,-117.08,Chula Vista 2024-08-12 04:00:00+00:00
2024-08-12 04:00:00+00:00,28.0425,64.0,20.596643,29.377514,2.0,0.0,0.0,0.0,0.0,89.0,24140.0,19.386593,58.671368,1.75,1.8,1.0,Honolulu,21.31,-157.86,Honolulu 2024-08-12 04:00:00+00:00
2024-08-12 04:00:00+00:00,14.7805,94.0,13.823898,13.88209,0.0,0.0,0.0,0.0,0.0,100.0,12200.0,14.654254,332.176,0.0,0.0,0.0,Fremont,37.55,-121.98,Fremont 2024-08-12 04:00:00+00:00
2024-08-12 04:00:00+00:00,17.363,61.0,9.766481,16.280706,0.0,0.0,0.0,0.0,0.0,0.0,29100.0,7.072878,255.2564,0.0,0.0,0.0,Toledo,41.65,-83.54,Toledo 2024-08-12 04:00:00+00:00
2024-08-12 04:00:00+00:00,17.024,78.0,13.15935,16.399601,0.0,0.0,0.0,0.0,0.0,5.0,18700.0,11.177405,345.06854,0.0,0.0,0.0,San Jose,37.34,-121.89,San Jose 2024-08-12 04:00:00+00:00
2024-08-12 04:00:00+00:00,22.8155,68.0,16.600817,24.291332,0.0,0.0,0.0,0.0,0.0,6.0,26000.0,5.692099,55.304783,0.0,0.0,0.0,Memphis,35.15,-90.05,Memphis 2024-08-12 04:00:00+00:00
2024-08-12 04:00:00+00:00,19.178,64.0,12.204882,18.535088,0.0,0.0,0.0,0.0,0.0,0.0,28600.0,9.114471,350.9098,0.0,0.0,0.0,Portland,45.52,-122.68,Portland 2024-08-12 04:00:00+00:00
2024-08-12 04:00:00+00:00,16.845499,66.0,10.455042,16.28629,0.0,0.0,0.0,0.0,0.0,0.0,25400.0,4.8433046,311.98712,0.0,0.0,0.0,Indianapolis,39.77,-86.16,Indianapolis 2024-08-12 04:00:00+00:00
2024-08-12 04:00:00+00:00,24.774,53.0,14.549434,25.519623,0.0,0.0,0.0,0.0,0.0,1.0,35900.0,5.154415,294.77512,0.0,0.0,0.0,Atlanta,33.75,-84.39,Atlanta 2024-08-12 04:00:00+00:00
2024-08-12 04:00:00+00:00,24.5565,67.0,18.025183,26.648237,0.0,0.0,0.0,0.0,0.0,2.0,24800.0,5.6920996,288.43503,0.0,0.0,0.0,Anaheim,33.83,-117.91,Anaheim 2024-08-12 04:00:00+00:00
2024-08-12 04:00:00+00:00,17.272001,63.0,10.162637,16.981827,0.0,0.0,0.0,0.0,0.0,22.0,29200.0,2.4149535,206.56499,0.0,0.0,0.0,Pittsburgh,40.44,-79.99,Pittsburgh 2024-08-12 04:00:00+00:00
2024-08-12 04:00:00+00:00,27.7305,79.0,23.75517,32.88303,0.0,0.0,0.0,0.0,0.0,0.0,19800.0,5.4477882,172.40544,0.0,0.0,0.0,Houston,29.76,-95.37,Houston 2024-08-12 04:00:00+00:00
2024-08-12 04:00:00+00:00,25.367,11.0,-7.245034,19.017342,0.0,0.0,0.0,0.0,0.0,0.0,90000.0,22.870626,298.1785,0.0,0.0,0.0,Reno,39.53,-119.81,Reno 2024-08-12 04:00:00+00:00
2024-08-12 04:00:00+00:00,16.0805,72.0,11.031658,15.668486,0.0,0.0,0.0,0.0,0.0,0.0,23800.0,5.0142193,201.03758,0.0,0.0,0.0,Minneapolis,44.98,-93.27,Minneapolis 2024-08-12 04:00:00+00:00
2024-08-12 04:00:00+00:00,14.5,73.0,9.717519,13.900692,0.0,0.0,0.0,0.0,0.0,0.0,21900.0,3.671294,281.3099,0.0,0.0,0.0,Fort Wayne,41.08,-85.14,Fort Wayne 2024-08-12 04:00:00+00:00
2024-08-12 04:00:00+00:00,24.163,71.0,18.573877,26.653826,0.0,0.0,0.0,0.0,0.0,5.0,22200.0,4.68,270.0,0.0,0.0,0.0,Santa Ana,33.74,-117.87,Santa Ana 2024-08-12 04:00:00+00:00
2024-08-12 04:00:00+00:00,30.763,54.0,20.387611,32.419228,15.0,0.0,0.0,0.0,0.0,0.0,34200.0,16.418526,142.12495,0.0,0.0,0.0,Arlington,32.74,-97.11,Arlington 2024-08-12 04:00:00+00:00
2024-08-12 04:00:00+00:00,26.2535,26.0,5.2286797,24.374939,0.0,0.0,0.0,0.0,0.0,3.0,69200.0,4.8433046,138.01286,0.0,0.0,0.0,Spokane,47.66,-117.43,Spokane 2024-08-12 04:00:00+00:00
2024-08-12 04:00:00+00:00,25.207,90.0,23.44873,30.339058,100.0,0.0,0.0,0.0,0.0,100.0,14300.0,4.3349743,48.366554,0.0,0.0,0.0,Charlotte,35.23,-80.84,Charlotte 2024-08-12 04:00:00+00:00
2024-08-12 04:00:00+00:00,25.0845,79.0,21.185928,27.229057,100.0,0.0,0.0,0.0,0.0,28.0,19400.0,15.990646,148.81508,0.0,0.0,0.0,Oklahoma City,35.47,-97.52,Oklahoma City 2024-08-12 04:00:00+00:00
2024-08-12 04:00:00+00:00,27.1085,55.0,17.293102,29.43671,0.0,0.0,0.0,0.0,0.0,0.0,32200.0,1.835647,281.3099,0.0,0.0,0.0,Riverside,33.98,-117.38,Riverside 2024-08-12 04:00:00+00:00
2024-08-12 04:00:00+00:00,34.2565,36.0,17.054783,35.05067,2.0,0.0,0.0,0.0,0.0,2.0,53800.0,11.592894,216.15828,0.0,0.0,0.0,Gilbert,33.35,-111.79,Gilbert 2024-08-12 04:00:00+00:00
2024-08-12 04:00:00+00:00,13.5325,97.0,13.065262,12.061817,0.0,0.0,0.0,0.0,0.0,100.0,12200.0,16.766108,284.93146,0.0,0.0,0.0,San Francisco,37.77,-122.42,San Francisco 2024-08-12 04:00:00+00:00
2024-08-12 04:00:00+00:00,22.5935,85.0,19.943127,24.976936,19.0,0.0,0.0,0.0,0.0,71.0,16200.0,9.9571085,12.528798,0.0,0.0,0.0,Winston-Salem,36.1,-80.26,Winston-Salem 2024-08-12 04:00:00+00:00
2024-08-12 04:00:00+00:00,16.9545,66.0,10.558747,16.502066,0.0,0.0,0.0,0.0,0.0,1.0,25200.0,4.32,270.0,0.0,0.0,0.0,Lexington,38.04,-84.5,Lexington 2024-08-12 04:00:00+00:00
2024-08-12 04:00:00+00:00,23.786999,48.0,12.121179,22.374798,0.0,0.0,0.0,0.0,0.0,0.0,39400.0,14.186923,324.2932,0.0,0.0,0.0,Jersey City,40.71,-74.07,Jersey City 2024-08-12 04:00:00+00:00
2024-08-12 04:00:00+00:00,22.467001,82.0,19.240822,25.228207,56.0,0.0,0.0,0.0,0.0,100.0,16300.0,5.00128,300.25635,0.0,0.0,0.0,San Diego,32.72,-117.16,San Diego 2024-08-12 04:00:00+00:00
2024-08-12 04:00:00+00:00,34.6435,34.0,16.493317,35.463898,2.0,0.0,0.0,0.0,0.0,1.0,55700.0,9.793059,233.97253,0.0,0.0,0.0,Mesa,33.42,-111.83,Mesa 2024-08-12 04:00:00+00:00
2024-08-12 04:00:00+00:00,16.8,72.0,11.723353,16.393883,0.0,0.0,0.0,0.0,0.0,0.0,22700.0,6.439876,296.56497,0.0,0.0,0.0,Madison,43.07,-89.4,Madison 2024-08-12 04:00:00+00:00
2024-08-12 04:00:00+00:00,29.241499,59.0,20.40593,31.158905,6.0,0.0,0.0,0.0,0.0,6.0,29100.0,14.707222,158.45895,0.0,0.0,0.0,Plano,33.02,-96.7,Plano 2024-08-12 04:00:00+00:00
2024-08-12 04:00:00+00:00,25.35,94.0,24.313515,30.913475,85.0,0.0,0.0,0.0,0.0,98.0,13900.0,5.04,90.0,0.0,0.0,0.0,Jacksonville,30.33,-81.65,Jacksonville 2024-08-12 04:00:00+00:00
2024-08-12 04:00:00+00:00,20.9545,60.0,12.897118,21.490543,0.0,0.0,0.0,0.0,0.0,0.0,30000.0,2.5959969,56.309914,0.0,0.0,0.0,Nashville,36.16,-86.78,Nashville 2024-08-12 04:00:00+00:00
2024-08-12 04:00:00+00:00,29.1,83.0,25.91618,33.18459,2.0,0.0,0.0,0.0,0.0,0.0,16100.0,22.380884,101.12915,0.0,0.0,0.0,Corpus Christi,27.8,-97.4,Corpus Christi 2024-08-12 04:00:00+00:00
2024-08-12 04:00:00+00:00,23.182499,83.0,20.134855,26.794605,49.0,0.0,0.0,0.0,0.0,14.0,18100.0,2.1897945,99.46225,0.0,0.0,0.0,Chesapeake,36.77,-76.29,Chesapeake 2024-08-12 04:00:00+00:00
2024-08-12 04:00:00+00:00,12.633,89.0,10.866945,11.916779,9.0,1.2,0.0,1.2,0.0,100.0,24140.0,6.763786,205.2011,1.05,1.25,1.0,Anchorage,61.22,-149.89,Anchorage 2024-08-12 04:00:00+00:00
2024-08-12 04:00:00+00:00,24.2435,48.0,12.538602,23.5514,0.0,0.0,0.0,0.0,0.0,0.0,40300.0,10.182337,278.13,0.0,0.0,0.0,Stockton,37.96,-121.29,Stockton 2024-08-12 04:00:00+00:00
2024-08-12 04:00:00+00:00,21.491499,83.0,18.482231,23.706347,0.0,0.0,0.0,0.0,0.0,98.0,16900.0,6.297428,329.03632,0.0,0.0,0.0,Richmond,37.54,-77.43,Richmond 2024-08-12 04:00:00+00:00
2024-08-12 04:00:00+00:00,27.182499,66.0,20.280321,30.121498,0.0,0.0,0.0,0.0,0.0,0.0,27200.0,7.2805495,98.530685,0.0,0.0,0.0,Baton Rouge,30.45,-91.15,Baton Rouge 2024-08-12 04:00:00+00:00
2024-08-12 04:00:00+00:00,23.0455,79.0,19.205574,25.652699,0.0,0.0,0.0,0.0,0.0,4.0,17500.0,5.937272,255.96373,0.0,0.0,0.0,Irvine,33.68,-117.83,Irvine 2024-08-12 04:00:00+00:00
2024-08-12 04:00:00+00:00,34.045,22.0,9.327628,32.945766,0.0,0.0,0.0,0.0,0.0,1.0,75500.0,6.28713,256.75946,0.0,0.0,0.0,El Paso,31.76,-106.49,El Paso 2024-08-12 04:00:00+00:00
2024-08-12 04:00:00+00:00,22.9415,77.0,18.693823,25.541891,49.0,0.0,0.0,0.0,0.0,100.0,20800.0,4.32,90.0,0.0,0.0,0.0,Norfolk,36.85,-76.29,Norfolk 2024-08-12 04:00:00+00:00
2024-08-12 04:00:00+00:00,30.65,29.0,10.590071,28.359383,0.0,0.0,0.0,0.0,0.0,0.0,63700.0,16.93531,177.5634,0.0,0.0,0.0,Lubbock,33.58,-101.88,Lubbock 2024-08-12 04:00:00+00:00
2024-08-12 04:00:00+00:00,19.754,74.0,14.987573,20.558266,0.0,0.0,0.0,0.0,0.0,1.0,22000.0,5.904439,307.56866,0.0,0.0,0.0,Washington,38.91,-77.04,Washington 2024-08-12 04:00:00+00:00
2024-08-12 04:00:00+00:00,21.730999,67.0,15.335231,22.667667,19.0,0.0,0.0,0.0,0.0,100.0,24200.0,5.904439,127.568665,0.0,0.0,0.0,Omaha,41.26,-95.94,Omaha 2024-08-12 04:00:00+00:00
2024-08-12 04:00:00+00:00,24.317501,92.0,22.93332,28.662094,13.0,0.0,0.0,0.0,0.0,100.0,12700.0,7.6367526,171.86998,0.0,0.0,0.0,Orlando,28.54,-81.38,Orlando 2024-08-12 04:00:00+00:00
2024-08-12 04:00:00+00:00,20.772001,60.0,12.725589,19.909351,33.0,0.0,0.0,0.0,0.0,34.0,29100.0,11.792404,282.33908,0.0,0.0,0.0,Cleveland,41.5,-81.69,Cleveland 2024-08-12 04:00:00+00:00
2024-08-12 04:00:00+00:00,32.2695,26.0,10.33306,29.936054,0.0,0.0,0.0,0.0,0.0,0.0,68300.0,16.704155,322.88306,0.0,0.0,0.0,Fresno,36.73,-119.79,Fresno 2024-08-12 04:00:00+00:00
2024-08-12 04:00:00+00:00,21.869501,85.0,19.23348,24.158716,56.0,0.0,0.0,0.0,0.0,1.0,16000.0,8.217153,118.8107,0.0,0.0,0.0,Wichita,37.69,-97.34,Wichita 2024-08-12 04:00:00+00:00
2024-08-12 04:00:00+00:00,18.98,47.0,7.4131784,17.680668,0.0,0.0,0.0,0.0,0.0,0.0,41000.0,4.32,180.0,0.0,0.0,0.0,Chicago,41.88,-87.63,Chicago 2024-08-12 04:00:00+00:00
2024-08-12 04:00:00+00:00,28.159,76.0,23.527403,32.985588,0.0,0.0,0.0,0.0,0.0,0.0,20200.0,6.725354,164.47583,0.0,0.0,0.0,New Orleans,29.95,-90.07,New Orleans 2024-08-12 04:00:00+00:00
2024-08-12 04:00:00+00:00,22.05,78.0,18.035683,24.032343,59.0,0.0,0.0,0.0,0.0,2.0,19400.0,6.489992,356.82022,0.0,0.0,0.0,Virginia Beach,36.85,-75.98,Virginia Beach 2024-08-12 04:00:00+00:00
2024-08-12 04:00:00+00:00,31.8065,47.0,19.106956,33.17155,15.0,0.0,0.0,0.0,0.0,2.0,38200.0,14.05845,140.19447,0.0,0.0,0.0,Irving,32.81,-96.95,Irving 2024-08-12 04:00:00+00:00
2024-08-12 04:00:00+00:00,28.969,17.0,1.4580878,25.134201,0.0,0.0,0.0,0.0,0.0,0.0,86800.0,13.32,71.075264,0.0,0.0,0.0,Boise,43.62,-116.2,Boise 2024-08-12 04:00:00+00:00
2024-08-12 04:00:00+00:00,36.8065,28.0,15.320489,35.41745,95.0,0.0,0.0,0.0,0.0,50.0,64900.0,21.707731,185.7105,0.0,0.0,0.0,North Las Vegas,36.2,-115.12,North Las Vegas 2024-08-12 04:00:00+00:00
2024-08-12 04:00:00+00:00,34.5435,35.0,16.862267,35.431915,2.0,0.0,0.0,0.0,0.0,11.0,54400.0,10.383987,213.6901,0.0,0.0,0.0,Chandler,33.31,-111.84,Chandler 2024-08-12 04:00:00+00:00
2024-08-12 04:00:00+00:00,30.727999,64.0,23.135952,33.38535,0.0,0.0,0.0,0.0,0.0,0.0,26100.0,19.95972,129.14398,0.0,0.0,0.0,Laredo,27.53,-99.49,Laredo 2024-08-12 04:00:00+00:00
2024-08-12 04:00:00+00:00,30.6565,33.0,12.551125,30.4063,5.0,0.0,0.0,0.0,0.0,1.0,58300.0,7.145796,319.0857,0.0,0.0,0.0,Tucson,32.22,-110.97,Tucson 2024-08-12 04:00:00+00:00
2024-08-12 04:00:00+00:00,29.720001,61.0,21.396933,32.308052,34.0,0.0,0.0,0.0,0.0,1.0,29100.0,13.684735,153.43501,0.0,0.0,0.0,Fort Worth,32.75,-97.33,Fort Worth 2024-08-12 04:00:00+00:00
2024-08-12 04:00:00+00:00,35.637,33.0,16.889269,35.990707,4.0,0.0,0.0,0.0,0.0,44.0,57900.0,14.118243,250.64091,0.0,0.0,0.0,Phoenix,33.45,-112.07,Phoenix 2024-08-12 04:00:00+00:00
2024-08-12 04:00:00+00:00,36.578503,30.0,16.204115,33.99021,63.0,0.0,0.0,0.0,0.0,44.0,61000.0,32.335934,168.4399,0.0,0.0,0.0,Henderson,36.04,-115.05,Henderson 2024-08-12 04:00:00+00:00
2024-08-12 04:00:00+00:00,23.213501,50.0,12.216102,22.152973,0.0,0.0,0.0,0.0,0.0,0.0,38900.0,11.988594,318.6523,0.0,0.0,0.0,New York,40.71,-74.01,New York 2024-08-12 04:00:00+00:00
2024-08-12 04:00:00+00:00,21.880499,85.0,19.24426,24.659159,0.0,0.0,0.0,0.0,0.0,10.0,15400.0,4.8965297,216.02747,0.0,0.0,0.0,Long Beach,33.77,-118.19,Long Beach 2024-08-12 04:00:00+00:00
2024-08-12 04:00:00+00:00,33.682503,9.0,-3.5685115,29.980984,0.0,0.0,0.0,0.0,0.0,0.0,90000.0,7.42159,14.036275,0.0,0.0,0.0,Bakersfield,35.37,-119.02,Bakersfield 2024-08-12 04:00:00+00:00
2024-08-12 04:00:00+00:00,30.6975,51.0,19.404678,32.5868,8.0,0.0,0.0,0.0,0.0,26.0,35500.0,11.457958,133.72705,0.0,0.0,0.0,Dallas,32.78,-96.8,Dallas 2024-08-12 04:00:00+00:00
2024-08-12 04:00:00+00:00,29.796999,27.0,8.794908,28.728165,0.0,0.0,0.0,0.0,0.0,100.0,63400.0,5.1165614,140.71062,0.0,0.0,0.0,Albuquerque,35.08,-106.65,Albuquerque 2024-08-12 04:00:00+00:00
2024-08-12 04:00:00+00:00,23.883,93.0,22.68138,28.45971,38.0,0.0,0.0,0.0,0.0,9.0,13500.0,5.04,270.0,0.0,0.0,0.0,Raleigh,35.78,-78.64,Raleigh 2024-08-12 04:00:00+00:00
2024-08-12 04:00:00+00:00,18.2215,60.0,10.327586,16.88935,0.0,0.0,0.0,0.0,0.0,1.0,29500.0,9.885262,259.50858,0.0,0.0,0.0,Milwaukee,43.04,-87.91,Milwaukee 2024-08-12 04:00:00+00:00
2024-08-12 04:00:00+00:00,21.015501,73.0,15.990335,22.25261,48.0,0.0,0.0,0.0,0.0,100.0,21200.0,5.6233797,129.80553,0.0,0.0,0.0,Lincoln,40.81,-96.68,Lincoln 2024-08-12 04:00:00+00:00
2024-08-12 04:00:00+00:00,29.348,68.0,22.827898,33.92209,0.0,0.0,0.0,0.0,0.0,0.0,23400.0,5.5887027,165.06853,0.0,0.0,0.0,Austin,30.27,-97.74,Austin 2024-08-12 04:00:00+00:00
2024-08-12 04:00:00+00:00,19.448,70.0,13.833711,20.039022,0.0,0.0,0.0,0.0,0.0,0.0,24900.0,4.452954,255.96373,0.0,0.0,0.0,Philadelphia,39.95,-75.17,Philadelphia 2024-08-12 04:00:00+00:00
2024-08-12 04:00:00+00:00,21.030499,60.0,12.968548,20.7572,0.0,0.0,0.0,0.0,0.0,99.0,29400.0,8.311245,274.96964,0.0,0.0,0.0,Boston,42.36,-71.06,Boston 2024-08-12 04:00:00+00:00
2024-08-12 04:00:00+00:00,26.587,70.0,20.666615,29.354519,6.0,0.0,0.0,0.0,0.0,1.0,24000.0,9.826088,151.55717,0.0,0.0,0.0,Garland,32.91,-96.64,Garland 2024-08-12 04:00:00+00:00
2024-08-12 05:00:00+00:00,28.747,31.0,9.947527,27.505844,0.0,0.0,0.0,0.0,0.0,69.0,60000.0,8.473393,12.26477,0.0,0.0,0.0,Albuquerque,35.08,-106.65,Albuquerque 2024-08-12 05:00:00+00:00
2024-08-12 05:00:00+00:00,29.469501,31.0,10.5734215,27.690811,0.0,0.0,0.0,0.0,0.0,0.0,60400.0,13.397612,329.30035,0.0,0.0,0.0,Fresno,36.73,-119.79,Fresno 2024-08-12 05:00:00+00:00
2024-08-12 05:00:00+00:00,22.9415,85.0,20.284208,26.666353,41.0,0.0,0.0,0.0,0.0,100.0,17300.0,1.9386592,338.19852,0.0,0.0,0.0,Norfolk,36.85,-76.29,Norfolk 2024-08-12 05:00:00+00:00
2024-08-12 05:00:00+00:00,14.7305,90.0,13.106475,13.807682,0.0,0.0,0.0,0.0,0.0,100.0,13400.0,13.1041975,339.07544,0.0,0.0,0.0,Fremont,37.55,-121.98,Fremont 2024-08-12 05:00:00+00:00
2024-08-12 05:00:00+00:00,29.3565,36.0,12.739129,28.94225,11.0,0.0,0.0,0.0,0.0,0.0,52000.0,8.707237,330.25522,0.0,0.0,0.0,Tucson,32.22,-110.97,Tucson 2024-08-12 05:00:00+00:00
2024-08-12 05:00:00+00:00,34.2565,32.0,15.207877,35.006603,4.0,0.0,0.0,0.0,0.0,0.0,58300.0,6.763786,205.2011,0.0,0.0,0.0,Gilbert,33.35,-111.79,Gilbert 2024-08-12 05:00:00+00:00
2024-08-12 05:00:00+00:00,22.4865,71.0,16.966568,24.157372,0.0,0.0,0.0,0.0,0.0,0.0,21700.0,5.4119864,273.814,0.0,0.0,0.0,Los Angeles,34.05,-118.24,Los Angeles 2024-08-12 05:00:00+00:00
2024-08-12 05:00:00+00:00,16.2495,74.0,11.608231,16.536478,0.0,0.0,0.0,0.0,0.0,0.0,20800.0,1.4399999,360.0,0.0,0.0,0.0,Cincinnati,39.1,-84.51,Cincinnati 2024-08-12 05:00:00+00:00
2024-08-12 05:00:00+00:00,28.9455,77.0,24.505493,34.773052,67.0,0.0,0.0,0.0,0.0,7.0,19100.0,4.0249224,169.6952,0.0,0.0,0.0,Hialeah,25.86,-80.3,Hialeah 2024-08-12 05:00:00+00:00
2024-08-12 05:00:00+00:00,18.4875,92.0,17.162876,19.32417,53.0,5.8,5.8,0.0,0.0,100.0,13200.0,11.726277,107.87879,0.0,0.0,0.0,Kansas City,39.1,-94.58,Kansas City 2024-08-12 05:00:00+00:00
2024-08-12 05:00:00+00:00,28.948,67.0,22.203255,32.284153,0.0,0.0,0.0,0.0,0.0,18.0,24700.0,11.620809,163.81073,0.0,0.0,0.0,Austin,30.27,-97.74,Austin 2024-08-12 05:00:00+00:00
2024-08-12 05:00:00+00:00,16.9615,71.0,11.666604,16.607567,0.0,0.0,0.0,0.0,0.0,15.0,22300.0,5.95906,244.98314,0.0,0.0,0.0,Tacoma,47.25,-122.44,Tacoma 2024-08-12 05:00:00+00:00
2024-08-12 05:00:00+00:00,29.0415,58.0,19.942413,31.104336,6.0,0.0,0.0,0.0,0.0,1.0,30300.0,12.10157,157.249,0.0,0.0,0.0,Plano,33.02,-96.7,Plano 2024-08-12 05:00:00+00:00
2024-08-12 05:00:00+00:00,21.813501,59.0,13.446029,22.277283,0.0,0.0,0.0,0.0,0.0,0.0,31700.0,4.379589,350.53775,0.0,0.0,0.0,New York,40.71,-74.01,New York 2024-08-12 05:00:00+00:00
2024-08-12 05:00:00+00:00,20.5655,80.0,16.99472,21.957966,65.0,0.0,0.0,0.0,0.0,99.0,17900.0,7.4128532,150.9455,0.0,0.0,0.0,Lincoln,40.81,-96.68,Lincoln 2024-08-12 05:00:00+00:00
2024-08-12 05:00:00+00:00,21.469501,86.0,19.028788,24.24706,28.0,0.0,0.0,0.0,0.0,78.0,15000.0,4.198285,300.96368,0.0,0.0,0.0,Chula Vista,32.64,-117.08,Chula Vista 2024-08-12 05:00:00+00:00
2024-08-12 05:00:00+00:00,28.269001,18.0,1.6889564,24.105675,0.0,0.0,0.0,0.0,0.0,0.0,85000.0,15.844089,68.68202,0.0,0.0,0.0,Boise,43.62,-116.2,Boise 2024-08-12 05:00:00+00:00
2024-08-12 05:00:00+00:00,23.6325,85.0,20.961452,27.56795,41.0,0.0,0.0,0.0,0.0,100.0,17400.0,2.9024127,97.12492,0.0,0.0,0.0,Chesapeake,36.77,-76.29,Chesapeake 2024-08-12 05:00:00+00:00
2024-08-12 05:00:00+00:00,22.3955,84.0,19.558401,25.708494,0.0,0.0,0.0,0.0,0.0,11.0,15300.0,2.2768397,251.56496,0.0,0.0,0.0,Irvine,33.68,-117.83,Irvine 2024-08-12 05:00:00+00:00
2024-08-12 05:00:00+00:00,19.234499,81.0,15.893737,20.496805,0.0,0.0,0.0,0.0,0.0,84.0,17900.0,5.1919937,326.3099,0.0,0.0,0.0,Baltimore,39.29,-76.61,Baltimore 2024-08-12 05:00:00+00:00
2024-08-12 05:00:00+00:00,26.0195,91.0,24.435022,31.7095,39.0,0.0,0.0,0.0,0.0,35.0,14000.0,4.6938257,122.471176,0.0,0.0,0.0,Tampa,27.95,-82.46,Tampa 2024-08-12 05:00:00+00:00
2024-08-12 05:00:00+00:00,35.5065,36.0,18.154203,34.53536,89.0,0.0,0.0,0.0,0.0,60.0,49800.0,27.0,180.0,0.0,0.0,0.0,North Las Vegas,36.2,-115.12,North Las Vegas 2024-08-12 05:00:00+00:00
2024-08-12 05:00:00+00:00,29.320002,61.0,21.020958,31.58984,28.0,0.0,0.0,0.0,0.0,1.0,29300.0,14.48972,153.43501,0.0,0.0,0.0,Fort Worth,32.75,-97.33,Fort Worth 2024-08-12 05:00:00+00:00
2024-08-12 05:00:00+00:00,34.836998,29.0,14.181768,34.292236,9.0,0.0,0.0,0.0,0.0,46.0,62900.0,13.009903,255.5792,0.0,0.0,0.0,Phoenix,33.45,-112.07,Phoenix 2024-08-12 05:00:00+00:00
2024-08-12 05:00:00+00:00,21.152,32.0,3.8049264,18.989588,2.0,0.0,0.0,0.0,0.0,61.0,59400.0,4.802999,77.00539,0.0,0.0,0.0,Aurora,39.73,-104.83,Aurora 2024-08-12 05:00:00+00:00
2024-08-12 05:00:00+00:00,22.198,91.0,20.658085,25.760292,9.0,0.0,0.0,0.0,0.0,38.0,14200.0,4.379589,9.462248,0.0,0.0,0.0,Greensboro,36.07,-79.79,Greensboro 2024-08-12 05:00:00+00:00
2024-08-12 05:00:00+00:00,31.0325,12.0,-1.7065394,27.55183,0.0,0.0,0.0,0.0,0.0,0.0,90000.0,7.5685663,334.65387,0.0,0.0,0.0,Bakersfield,35.37,-119.02,Bakersfield 2024-08-12 05:00:00+00:00
2024-08-12 05:00:00+00:00,17.7215,66.0,11.288423,16.692438,0.0,0.0,0.0,0.0,0.0,0.0,26200.0,9.779817,276.3401,0.0,0.0,0.0,Milwaukee,43.04,-87.91,Milwaukee 2024-08-12 05:00:00+00:00
2024-08-12 05:00:00+00:00,18.798,80.0,15.274624,19.608782,0.0,0.0,0.0,0.0,0.0,0.0,19400.0,6.6185193,292.3802,0.0,0.0,0.0,Philadelphia,39.95,-75.17,Philadelphia 2024-08-12 05:00:00+00:00
2024-08-12 05:00:00+00:00,15.790999,76.0,11.56893,15.593292,0.0,0.0,0.0,0.0,0.0,0.0,20200.0,4.6800003,247.3801,0.0,0.0,0.0,Columbus,39.96,-83.0,Columbus 2024-08-12 05:00:00+00:00
2024-08-12 05:00:00+00:00,22.95,68.0,16.7291,24.909626,0.0,0.0,0.0,0.0,0.0,0.0,24100.0,2.7416782,203.19862,0.0,0.0,0.0,Glendale,34.14,-118.25,Glendale 2024-08-12 05:00:00+00:00
2024-08-12 05:00:00+00:00,19.65,62.0,12.16844,18.328564,0.0,0.0,0.0,0.0,0.0,5.0,26700.0,13.684735,215.36255,0.0,0.0,0.0,Sacramento,38.58,-121.49,Sacramento 2024-08-12 05:00:00+00:00
2024-08-12 05:00:00+00:00,27.509,81.0,23.955545,32.94997,0.0,0.0,0.0,0.0,0.0,0.0,18000.0,4.32,180.0,0.0,0.0,0.0,New Orleans,29.95,-90.07,New Orleans 2024-08-12 05:00:00+00:00
2024-08-12 05:00:00+00:00,21.8935,86.0,19.444988,24.235622,14.0,0.0,0.0,0.0,0.0,50.0,15900.0,8.557102,22.249071,0.0,0.0,0.0,Winston-Salem,36.1,-80.26,Winston-Salem 2024-08-12 05:00:00+00:00
2024-08-12 05:00:00+00:00,20.674002,65.0,13.860817,21.365353,0.0,0.0,0.0,0.0,0.0,0.0,28100.0,3.8268526,318.81415,0.0,0.0,0.0,Newark,40.73,-74.17,Newark 2024-08-12 05:00:00+00:00
2024-08-12 05:00:00+00:00,22.515501,70.0,16.77066,24.089663,0.0,0.0,0.0,0.0,0.0,46.0,24500.0,5.506941,78.6901,0.0,0.0,0.0,Memphis,35.15,-90.05,Memphis 2024-08-12 05:00:00+00:00
2024-08-12 05:00:00+00:00,21.869501,89.0,19.97401,24.103867,54.0,0.0,0.0,0.0,0.0,26.0,13500.0,11.090103,125.753975,0.0,0.0,0.0,Wichita,37.69,-97.34,Wichita 2024-08-12 05:00:00+00:00
2024-08-12 05:00:00+00:00,23.424002,60.0,15.217515,24.31394,0.0,0.0,0.0,0.0,0.0,3.0,29400.0,5.904439,307.56866,0.0,0.0,0.0,Atlanta,33.75,-84.39,Atlanta 2024-08-12 05:00:00+00:00
2024-08-12 05:00:00+00:00,23.5065,71.0,17.944519,25.524006,0.0,0.0,0.0,0.0,0.0,2.0,21500.0,5.95906,244.98314,0.0,0.0,0.0,Anaheim,33.83,-117.91,Anaheim 2024-08-12 05:00:00+00:00
2024-08-12 05:00:00+00:00,20.572,54.0,10.941,19.904148,25.0,0.0,0.0,0.0,0.0,27.0,33900.0,6.5693827,279.46225,0.0,0.0,0.0,Cleveland,41.5,-81.69,Cleveland 2024-08-12 05:00:00+00:00
2024-08-12 05:00:00+00:00,16.522001,69.0,10.814225,16.37577,0.0,0.0,0.0,0.0,0.0,0.0,25000.0,2.7416782,246.80138,0.0,0.0,0.0,Pittsburgh,40.44,-79.99,Pittsburgh 2024-08-12 05:00:00+00:00
2024-08-12 05:00:00+00:00,15.874,87.0,13.7127905,15.847275,0.0,0.0,0.0,0.0,0.0,15.0,15300.0,8.4042845,350.13425,0.0,0.0,0.0,San Jose,37.34,-121.89,San Jose 2024-08-12 05:00:00+00:00
2024-08-12 05:00:00+00:00,24.417501,94.0,23.388187,29.16975,19.0,0.0,0.0,0.0,0.0,50.0,12400.0,6.696387,143.74608,0.0,0.0,0.0,Orlando,28.54,-81.38,Orlando 2024-08-12 05:00:00+00:00
2024-08-12 05:00:00+00:00,12.233,92.0,10.970823,12.05047,4.0,1.0,0.0,1.0,0.0,100.0,24140.0,3.319036,220.60121,0.55,0.6,1.0,Anchorage,61.22,-149.89,Anchorage 2024-08-12 05:00:00+00:00
2024-08-12 05:00:00+00:00,29.163,61.0,20.873373,31.589897,10.0,0.0,0.0,0.0,0.0,3.0,28100.0,12.879752,153.43501,0.0,0.0,0.0,Arlington,32.74,-97.11,Arlington 2024-08-12 05:00:00+00:00
